     2.10           OBSERVATION DATA    G (GPS)             RINEX VERSION / TYPE
GPB2RIN v7.00       1                   2-¶þÔÂ-15 10:21     PGM / RUN BY / DATE 
2                                                           MARKER NAME         
1                   1                                       OBSERVER / AGENCY   
                    Trimble Real-Time                       REC # / TYPE / VERS 
                                                            ANT # / TYPE        
 -2274089.6329  5011657.3137  3212967.8181                  APPROX POSITION XYZ 
        0.0000        0.0000        0.0000                  ANTENNA: DELTA H/E/N
     1     1                                                WAVELENGTH FACT L1/2
     5    C1    L1    L2    P2    D1                        # / TYPES OF OBSERV 
     1.000                                                  INTERVAL            
  2015     1    28     5    54   14.0000000                 TIME OF FIRST OBS   
                                                            END OF HEADER       
 15  1 28  5 54 14.0000000  0  7G24G12G22G18G14G15G21               
  20485055.628       71037.5781      47859.344    20485054.215        -895.776  
  23395845.723     -110138.6411          0.000           0.000        2903.057  
  22719148.904     -276317.1991    -183518.820    22719143.574        3036.485  
  20708979.459     -163668.5861    -107228.305    20708974.867        1759.424  
  23426110.856     -194510.5551    -119111.082    23426109.908        2110.903  
  22552922.653      168861.7111     111735.590    22552919.044       -1870.078  
  21263313.179      106642.0121      69529.211    21263309.100       -1188.872  
 15  1 28  5 54 15.0000000  0  7G24G12G22G18G14G15G21               
  20485226.296       71933.723       48557.641    20485224.817        -896.694  
  23395293.816     -113041.566           0.000           0.000        2902.686  
  22718570.697     -279353.512     -185884.781    22718565.531        3036.045  
  20708644.672     -165427.773     -108599.102    20708640.106        1758.838  
  23425709.130     -196621.281     -120755.801    23425707.995        2110.371  
  22553278.199      170731.980      113192.941    22553274.987       -1870.464  
  21263539.463      107831.402       70456.000    21263535.454       -1189.839  
 15  1 28  5 54 16.0000000  0  7G24G12G22G18G14G15G21               
  20485396.754       72830.719       49256.594    20485395.384        -897.397  
  23394741.360     -115944.047           0.000           0.000        2902.246  
  22717993.492     -282389.445     -188250.430    22717987.684        3035.796  
  20708309.772     -167186.391     -109969.449    20708305.369        1758.447  
  23425308.008     -198731.586     -122400.195    23425306.792        2110.098  
  22553634.194      172602.613      114650.574    22553631.109       -1870.796  
  21263765.963      109021.621       71383.438    21263762.245       -1190.679  
 15  1 28  5 54 17.0000000  0  7G24G12G22G18G14G15G21               
  20485567.838       73728.590       49956.230    20485566.270        -898.296  
  23394188.380     -118846.082           0.000           0.000        2901.748  
  22717415.369     -285425.047     -190615.828    22717409.902        3035.444  
  20707975.455     -168944.422     -111339.340    20707970.717        1757.710  
  23424906.646     -200841.457     -124044.246    23424905.227        2109.673  
  22553990.429      174473.551      116108.445    22553987.052       -1871.108  
  21263992.721      110212.645       72311.508    21263988.705       -1191.499  
 15  1 28  5 54 18.0000000  0  7G24G12G22G18G14G15G21               
  20485738.976       74627.387       50656.590    20485737.492        -899.316  
  23393636.008     -121747.570           0.000           0.000        2901.133  
  22716837.958     -288460.207     -192980.883    22716832.304        3035.000  
  20707640.990     -170701.816     -112708.734    20707636.278        1757.090  
  23424504.913     -202950.781     -125687.867    23424503.557        2109.048  
  22554346.373      176344.879      117566.617    22554342.941       -1871.514  
  21264219.619      111404.527       73240.242    21264215.995       -1192.393  
 15  1 28  5 54 19.0000000  0  7G24G12G22G18G14G15G21               
  20485910.356       75527.105       51357.668    20485908.640        -900.195  
  23393083.961     -124648.570           0.000           0.000        2900.874  
  22716260.532     -291494.949     -195345.613    22716254.839        3034.546  
  20707306.754     -172458.598     -114077.660    20707302.057        1756.533  
  23424103.050     -205059.656     -127331.137    23424102.470        2108.716  
  22554703.119      178216.582      119025.082    22554699.412       -1871.816  
  21264446.150      112597.301       74169.684    21264442.554       -1193.208  
 15  1 28  5 54 20.0000000  0  7G24G12G22G18G14G15G21               
  20486081.708       76427.715       52059.445    20486080.347        -901.148  
  23392532.157     -127549.031           0.000           0.000        2900.229  
  22715683.301     -294529.297     -197710.043    22715677.357        3034.121  
  20706972.479     -174214.746     -115446.086    20706967.894        1755.815  
  23423702.038     -207168.059     -128974.043    23423701.306        2108.135  
  22555058.846      180088.660      120483.840    22555055.470       -1872.256  
  21264673.687      113790.934       75099.785    21264670.232       -1193.999  
 15  1 28  5 54 21.0000000  0  7G24G12G22G18G14G15G21               
  20486253.293       77329.254       52761.945    20486251.607        -901.987  
  23391980.901     -130448.930           0.000           0.000        2899.727  
  22715105.812     -297563.180     -200074.105    22715099.844        3033.642  
  20706638.654     -175970.254     -116814.016    20706633.814        1755.161  
  23423300.815     -209275.918     -130616.520    23423300.739        2107.598  
  22555415.190      181961.137      121942.914    22555412.206       -1872.646  
  21264900.952      114985.480       76030.598    21264897.086       -1195.000  
 15  1 28  5 54 22.0000000  0  7G24G12G22G18G14G15G21               
  20486425.119       78231.742       53465.172    20486423.441        -902.979  
  23391428.755     -133348.309           0.000           0.000        2899.395  
  22714528.129     -300596.652     -202437.855    22714522.684        3033.262  
  20706304.449     -177725.113     -118181.438    20706299.882        1754.502  
  23422900.156     -211383.270     -132258.609    23422899.823        2107.134  
  22555771.685      183834.047      123402.324    22555768.007       -1873.140  
  21265128.146      116180.918       76962.102    21265124.643       -1195.894  
 15  1 28  5 54 23.0000000  0  7G24G12G22G18G14G15G21               
  20486596.678       79135.215       54169.176    20486595.039        -903.955  
  23390877.684     -136247.102           0.000           0.000        2898.628  
  22713951.362     -303629.625     -204801.211    22713945.571        3032.793  
  20705970.572     -179479.258     -119548.309    20705966.210        1753.735  
  23422499.184     -213490.070     -133900.273    23422498.495        2106.660  
  22556128.280      185707.398      124862.074    22556124.903       -1873.545  
  21265356.009      117377.297       77894.348    21265352.275       -1196.885  
 15  1 28  5 54 24.0000000  0  7G24G12G22G18G14G15G21               
  20486768.995       80039.625       54873.910    20486767.434        -904.829  
  23390326.103     -139145.336           0.000           0.000        2898.081  
  22713373.785     -306662.195     -207164.246    22713368.335        3032.461  
  20705637.084     -181232.781     -120914.688    20705632.563        1753.252  
  23422098.551     -215596.348     -135541.523    23422097.467        2106.177  
  22556484.520      187581.164      126322.156    22556481.283       -1873.926  
  21265584.132      118574.574       78827.289    21265580.414       -1197.656  
 15  1 28  5 54 25.0000000  0  7G24G12G22G18G14G15G21               
  20486941.121       80944.930       55579.348    20486940.058        -905.840  
  23389774.615     -142043.121           0.000           0.000        2897.593  
  22712797.310     -309694.332     -209526.941    22712791.416        3031.860  
  20705303.794     -182985.691     -122280.594    20705298.449        1752.671  
  23421697.712     -217702.160     -137182.414    23421696.792        2105.522  
  22556840.963      189455.273      127782.504    22556837.806       -1874.316  
  21265811.803      119772.695       79760.891    21265808.317       -1198.564  
 15  1 28  5 54 26.0000000  0  7G24G12G22G18G14G15G21               
  20487113.829       81851.148       56285.488    20487112.107        -906.694  
  23389223.636     -144940.387           0.000           0.000        2897.138  
  22712220.376     -312726.074     -211889.328    22712214.439        3031.636  
  20704969.899     -184737.926     -123645.977    20704965.356        1752.017  
  23421297.195     -219807.441     -138822.883    23421296.567        2105.073  
  22557198.000      191329.789      129243.168    22557194.273       -1874.629  
  21266040.127      120971.723       80695.191    21266036.493       -1199.414  
 15  1 28  5 54 27.0000000  0  7G24G12G22G18G14G15G21               
  20487286.030       82758.316       56992.379    20487284.830        -907.617  
  23388671.657     -147837.027           0.000           0.000        2896.338  
  22711643.982     -315757.328     -214251.340    22711637.414        3031.147  
  20704636.565     -186489.523     -125010.863    20704631.887        1751.318  
  23420896.336     -221912.211     -140462.965    23420895.868        2104.580  
  22557554.892      193204.730      130704.164    22557551.303       -1875.024  
  21266268.580      122171.652       81630.199    21266264.313       -1200.298  
 15  1 28  5 54 28.0000000  0  7G24G12G22G18G14G15G21               
  20487458.617       83666.406       57699.980    20487457.507        -908.550  
  23388120.539     -150733.152           0.000           0.000        2895.737  
  22711066.995     -318788.172     -216613.031    22711061.066        3030.561  
  20704304.203     -188240.473     -126375.238    20704299.312        1750.640  
  23420496.181     -224016.461     -142102.641    23420495.335        2103.989  
  22557911.904      195080.059      132165.457    22557908.367       -1875.537  
  21266497.085      123372.473       82565.898    21266493.078       -1201.318  
 15  1 28  5 54 29.0000000  0  7G24G12G22G18G14G15G21               
  20487631.607       84575.449       58408.320    20487630.377        -909.497  
  23387569.872     -153628.762           0.000           0.000        2895.240  
  22710490.750     -321818.574     -218974.383    22710484.169        3030.093  
  20703970.515     -189990.770     -127739.105    20703965.822        1749.976  
  23420096.201     -226120.215     -143741.922    23420095.203        2103.423  
  22558268.690      196955.809      133627.086    22558265.090       -1875.996  
  21266725.774      124574.195       83502.305    21266721.918       -1202.231  
 15  1 28  5 54 30.0000000  0  7G24G12G22G18G14G15G21               
  20487804.727       85485.387       59117.371    20487803.886        -910.444  
  23387018.230     -156523.855           0.000           0.000        2895.000  
  22709913.422     -324848.570     -221335.422    22709907.619        3029.683  
  20703637.596     -191740.461     -129102.496    20703632.651        1749.390  
  23419696.064     -228223.465     -145380.809    23419694.927        2102.876  
  22558625.426      198831.918      135088.984    22558622.010       -1876.299  
  21266954.682      125776.773       84439.379    21266950.490       -1202.998  
 15  1 28  5 54 31.0000000  0  7G24G12G22G18G14G15G21               
  20487977.946       86396.160       59827.066    20487976.910        -911.138  
  23386467.602     -159418.469           0.000           0.000        2894.521  
  22709336.641     -327878.250     -223696.211    22709330.899        3029.531  
  20703304.852     -193489.582     -130465.445    20703299.893        1748.936  
  23419295.992     -230326.301     -147019.379    23419294.727        2102.754  
  22558983.052      200708.336      136551.129    22558979.547       -1876.538  
  21267183.461      126980.152       85377.070    21267179.885       -1203.667  
 15  1 28  5 54 32.0000000  0  7G24G12G22G18G14G15G21               
  20488151.583       87307.680       60537.336    20488150.523        -911.968  
  23385917.729     -162312.727           0.000           0.000        2893.945  
  22708760.573     -330907.656     -226056.785    22708754.656        3029.209  
  20702972.359     -195238.258     -131828.047    20702966.951        1748.403  
  23418895.364     -232428.789     -148657.684    23418894.584        2102.280  
  22559339.611      202584.969      138013.438    22559336.567       -1876.768  
  21267412.531      128184.238       86315.324    21267408.831       -1204.434  
 15  1 28  5 54 33.0000000  0  7G24G12G22G18G14G15G21               
  20488325.121       88220.066       61248.293    20488324.023        -912.866  
  23385367.327     -165206.547           0.000           0.000        2893.642  
  22708184.235     -333936.703     -228417.070    22708178.198        3028.882  
  20702639.416     -196986.352     -133190.195    20702634.208        1747.749  
  23418494.614     -234530.840     -150295.645    23418494.584        2101.709  
  22559696.703      204461.957      139476.027    22559693.759       -1877.143  
  21267641.608      129389.156       87254.223    21267638.390       -1205.396  
 15  1 28  5 54 34.0000000  0  7G24G12G22G18G14G15G21               
  20488498.883       89133.359       61959.941    20488497.499        -913.784  
  23384815.686     -168099.805           0.000           0.000        2893.018  
  22707608.045     -336965.324     -230777.039    22707601.480        3028.291  
  20702306.641     -198733.789     -134551.832    20702301.715        1747.056  
  23418095.921     -236632.457     -151933.270    23418094.402        2101.367  
  22560054.122      206339.324      140938.910    22560050.804       -1877.622  
  21267871.668      130594.941       88193.789    21267867.853       -1206.284  
 15  1 28  5 54 35.0000000  0  7G24G12G22G18G14G15G21               
  20488673.027       90047.625       62672.355    20488671.654        -914.722  
  23384265.105     -170992.504           0.000           0.000        2892.456  
  22707031.566     -339993.473     -233136.637    22707025.548        3027.895  
  20701974.537     -200480.551     -135912.945    20701969.475        1746.436  
  23417695.807     -238733.484     -153570.426    23417694.465        2100.688  
  22560411.311      208217.113      142402.121    22560408.084       -1878.032  
  21268101.049      131801.668       89134.094    21268097.254       -1207.280  
 15  1 28  5 54 36.0000000  0  7G24G12G22G18G14G15G21               
  20488847.244       90962.832       63385.504    20488845.753        -915.635  
  23383715.081     -173884.680           0.000           0.000        2891.943  
  22706455.444     -343021.199     -235495.914    22706449.390        3027.461  
  20701642.165     -202226.680     -137273.570    20701637.017        1745.815  
  23417295.808     -240834.008     -155207.195    23417295.118        2100.288  
  22560768.961      210095.301      143865.645    22560765.481       -1878.394  
  21268330.447      133009.262       90075.078    21268327.068       -1208.081  
 15  1 28  5 54 37.0000000  0  7G24G12G22G18G14G15G21               
  20489021.790       91878.992       64099.395    20489020.459        -916.641  
  23383165.054     -176776.305           0.000           0.000        2891.411  
  22705879.229     -346048.488     -237854.836    22705873.376        3027.056  
  20701310.224     -203972.137     -138633.660    20701305.014        1745.068  
  23416895.946     -242933.996     -156843.539    23416895.342        2099.717  
  22561126.222      211973.902      145329.488    22561123.059       -1878.892  
  21268560.432      134217.773       91016.777    21268557.080       -1208.931  
 15  1 28  5 54 38.0000000  0  7G24G12G22G18G14G15G21               
  20489196.288       92796.023       64813.965    20489194.822        -917.441  
  23382614.785     -179667.426           0.000           0.000        2890.874  
  22705302.866     -349075.387     -240213.461    22705297.561        3026.768  
  20700977.782     -205716.988     -139993.289    20700972.760        1744.585  
  23416496.369     -245033.520     -158479.531    23416495.463        2099.360  
  22561483.905      213852.867      146793.613    22561481.063       -1879.063  
  21268790.732      135427.148       91959.137    21268787.128       -1209.712  
 15  1 28  5 54 39.0000000  0  7G24G12G22G18G14G15G21               
  20489371.104       93713.871       65529.172    20489369.221        -918.198  
  23382065.451     -182558.090           0.000           0.000        2890.298  
  22704727.678     -352101.953     -242571.824    22704721.586        3026.440  
  20700645.989     -207461.305     -141352.500    20700640.970        1744.072  
  23416097.101     -247132.664     -160115.227    23416096.517        2098.940  
  22561841.674      215732.125      148257.969    22561838.527       -1879.355  
  21269021.415      136637.309       92902.109    21269017.573       -1210.527  
 15  1 28  5 54 40.0000000  0  7G24G12G22G18G14G15G21               
  20489545.851       94632.609       66245.070    20489544.423        -919.116  
  23381514.853     -185448.301           0.000           0.000        2889.932  
  22704151.537     -355128.148     -244929.891    22704145.796        3026.079  
  20700313.779     -209205.020     -142711.234    20700308.978        1743.428  
  23415697.951     -249231.316     -161750.535    23415697.226        2098.457  
  22562199.209      217611.730      149722.602    22562195.983       -1879.785  
  21269252.184      137848.297       93845.738    21269248.016       -1211.328  
 15  1 28  5 54 41.0000000  0  7G24G12G22G18G14G15G21               
  20489720.742       95552.188       66961.629    20489719.206        -919.941  
  23380964.425     -188338.012           0.000           0.000        2889.458  
  22703576.119     -358153.945     -247287.648    22703569.751        3025.664  
  20699982.659     -210948.152     -144069.523    20699977.549        1742.822  
  23415298.444     -251329.516     -163385.492    23415297.371        2097.910  
  22562557.306      219491.680      151187.492    22562553.847       -1880.039  
  21269482.448      139060.133       94790.023    21269478.479       -1212.163  
 15  1 28  5 54 42.0000000  0  7G24G12G22G18G14G15G21               
  20489895.882       96472.590       67678.820    20489894.301        -920.815  
  23380414.886     -191227.305           0.000           0.000        2889.219  
  22702999.969     -361179.430     -249645.156    22702994.181        3025.396  
  20699651.239     -212690.730     -145427.375    20699646.221        1742.300  
  23414899.322     -253427.340     -165020.148    23414898.369        2097.593  
  22562915.040      221371.926      152652.617    22562911.552       -1880.337  
  21269712.999      140272.746       95734.918    21269709.602       -1212.964  
 15  1 28  5 54 43.0000000  0  7G24G12G22G18G14G15G21               
  20490071.062       97393.875       68396.703    20490069.920        -921.611  
  23379864.515     -194116.094           0.000           0.000        2888.667  
  22702424.352     -364204.508     -252002.359    22702418.277        3024.922  
  20699319.890     -214432.707     -146784.762    20699314.764        1741.821  
  23414499.384     -255524.684     -166654.438    23414499.117        2097.275  
  22563272.753      223252.559      154118.043    22563269.570       -1880.806  
  21269943.944      141486.227       96680.488    21269940.259       -1213.809  
 15  1 28  5 54 44.0000000  0  7G24G12G22G18G14G15G21               
  20490246.907       98316.008       69115.258    20490244.874        -922.583  
  23379315.050     -197004.426           0.000           0.000        2887.998  
  22701848.525     -367229.270     -254359.313    22701842.529        3024.604  
  20698988.048     -216174.129     -148141.715    20698983.138        1741.118  
  23414100.879     -257621.594     -168288.398    23414100.047        2096.680  
  22563630.391      225133.438      155583.668    22563627.479       -1881.060  
  21270175.270      142700.477       97626.660    21270171.414       -1214.604  
 15  1 28  5 54 45.0000000  0  7G24G12G22G18G14G15G21               
  20490422.101       99238.977       69834.453    20490420.939        -923.398  
  23378764.939     -199892.289           0.000           0.000        2887.744  
  22701273.792     -370253.648     -256715.961    22701267.503        3024.165  
  20698657.153     -217914.988     -149498.230    20698651.438        1740.659  
  23413702.123     -259718.070     -169922.016    23413701.375        2096.157  
  22563988.498      227014.680      157049.570    22563985.272       -1881.362  
  21270406.371      143915.586       98573.496    21270402.568       -1215.547  
 15  1 28  5 54 46.0000000  0  7G24G12G22G18G14G15G21               
  20490598.008      100162.820       70554.328    20490596.690        -924.277  
  23378215.087     -202779.703           0.000           0.000        2887.241  
  22700698.465     -373277.699     -259072.355    22700692.147        3023.853  
  20698325.754     -219655.242     -150854.273    20698320.637        1739.951  
  23413303.374     -261814.125     -171555.309    23413302.262        2095.708  
  22564347.087      228896.254      158515.727    22564343.394       -1881.763  
  21270637.861      145131.496       99520.957    21270634.279       -1216.416  
 15  1 28  5 54 47.0000000  0  7G24G12G22G18G14G15G21               
  20490773.900      101087.539       71274.887    20490772.502        -925.171  
  23377666.526     -205666.574           0.000           0.000        2886.631  
  22700121.705     -376301.301     -261428.406    22700116.447        3023.374  
  20697994.749     -221394.902     -152209.855    20697989.862        1739.375  
  23412904.648     -263909.699     -173188.223    23412903.562        2095.396  
  22564705.221      230778.176      159982.156    22564701.982       -1882.095  
  21270869.180      146348.270      100469.082    21270865.643       -1217.280  
 15  1 28  5 54 48.0000000  0  7G24G12G22G18G14G15G21               
  20490950.407      102013.117       71996.117    20490948.669        -925.962  
  23377116.696     -208553.004           0.000           0.000        2886.304  
  22699546.721     -379324.598     -263784.223    22699540.885        3023.252  
  20697663.486     -223134.012     -153565.008    20697658.546        1738.887  
  23412505.766     -266004.859     -174820.805    23412505.015        2094.966  
  22565063.203      232660.441      161448.852    22565060.287       -1882.339  
  21271100.883      147565.809      101417.816    21271097.001       -1217.808  
 15  1 28  5 54 49.0000000  0  7G24G12G22G18G14G15G21               
  20491126.558      102939.543       72718.012    20491125.107        -926.768  
  23376568.007     -211438.992           0.000           0.000        2885.840  
  22698971.821     -382347.508     -266139.742    22698965.506        3022.783  
  20697332.627     -224872.539     -154919.703    20697328.062        1738.354  
  23412107.368     -268099.574     -176453.043    23412106.583        2094.536  
  22565421.411      234542.996      162915.777    22565418.375       -1882.622  
  21271332.456      148784.199      102367.211    21271329.055       -1218.726  
 15  1 28  5 54 50.0000000  0  7G24G12G22G18G14G15G21               
  20491303.008      103866.781       73440.539    20491301.497        -927.607  
  23376018.587     -214324.523           0.000           0.000        2885.391  
  22698396.642     -385370.117     -268495.027    22698390.660        3022.510  
  20697001.847     -226610.547     -156273.988    20696997.185        1737.827  
  23411708.373     -270193.934     -178085.012    23411708.422        2094.131  
  22565779.717      236425.840      164382.930    22565776.418       -1883.018  
  21271564.320      150003.336      103317.188    21271560.933       -1219.482  
 15  1 28  5 54 51.0000000  0  7G24G12G22G18G14G15G21               
  20491479.438      104794.816       74163.684    20491477.988        -928.496  
  23375469.397     -217209.715           0.000           0.000        2884.863  
  22697821.442     -388392.465     -270850.109    22697815.193        3022.129  
  20696671.256     -228348.047     -157627.879    20696666.444        1737.217  
  23411309.983     -272287.906     -179716.676    23411309.707        2093.687  
  22566138.066      238308.945      165850.285    22566134.985       -1883.291  
  21271796.870      151223.246      104267.766    21271793.229       -1220.361  
 15  1 28  5 54 52.0000000  0  7G24G12G22G18G14G15G21               
  20491656.492      105723.633       74887.430    20491654.854        -929.160  
  23374920.750     -220094.445           0.000           0.000        2884.580  
  22697246.263     -391414.480     -273204.926    22697240.360        3021.880  
  20696340.930     -230085.023     -158981.367    20696336.213        1736.763  
  23410911.923     -274381.508     -181348.047    23410911.763        2093.530  
  22566496.712      240192.316      167317.855    22566493.384       -1883.462  
  21272028.812      152443.914      105218.930    21272025.556       -1221.025  
 15  1 28  5 54 53.0000000  0  7G24G12G22G18G14G15G21               
  20491832.763      106653.340       75611.871    20491831.410        -930.161  
  23374371.463     -222978.746           0.000           0.000        2883.926  
  22696671.255     -394436.133     -275559.453    22696665.228        3021.411  
  20696010.314     -231821.398     -160334.387    20696006.036        1736.011  
  23410513.449     -276474.664     -182979.063    23410513.039        2092.944  
  22566854.733      242076.059      168785.699    22566851.551       -1884.087  
  21272261.768      153665.391      106170.730    21272257.775       -1221.948  
 15  1 28  5 54 54.0000000  0  7G24G12G22G18G14G15G21               
  20492009.916      107583.816       76336.926    20492008.315        -930.767  
  23373822.322     -225862.570           0.000           0.000        2883.726  
  22696096.254     -397457.480     -277913.742    22696090.392        3021.245  
  20695680.404     -233557.258     -161687.004    20695675.504        1735.615  
  23410115.439     -278567.391     -184609.750    23410114.452        2092.622  
  22567213.282      243960.063      170253.750    22567210.418       -1884.116  
  21272494.221      154887.668      107123.148    21272490.306       -1222.617  
 15  1 28  5 54 55.0000000  0  7G24G12G22G18G14G15G21               
  20492187.202      108515.152       77062.641    20492185.219        -931.733  
  23373274.225     -228745.992           0.000           0.000        2883.232  
  22695521.638     -400478.465     -280267.742    22695515.380        3020.850  
  20695349.726     -235292.582     -163039.207    20695345.212        1735.151  
  23409717.031     -280659.758     -186240.164    23409716.559        2092.134  
  22567571.834      245844.352      171722.020    22567569.006       -1884.409  
  21272726.827      156110.707      108076.164    21272723.398       -1223.433  
 15  1 28  5 54 56.0000000  0  7G24G12G22G18G14G15G21               
  20492364.637      109447.309       77788.996    20492363.371        -932.519  
  23372725.216     -231628.965           0.000           0.000        2882.710  
  22694947.101     -403499.113     -282621.492    22694940.846        3020.542  
  20695019.539     -237027.324     -164390.957    20695015.251        1734.556  
  23409319.220     -282751.684     -187870.234    23409318.379        2091.812  
  22567929.995      247728.965      173190.543    22567927.479       -1884.775  
  21272959.666      157334.559      109029.813    21272956.488       -1224.238  
 15  1 28  5 54 57.0000000  0  7G24G12G22G18G14G15G21               
  20492542.067      110380.391       78516.066    20492540.547        -933.574  
  23372176.183     -234511.406           0.000           0.000        2882.251  
  22694371.908     -406519.324     -284974.906    22694366.549        3019.961  
  20694689.734     -238761.422     -165742.203    20694685.015        1733.838  
  23408920.916     -284843.094     -189499.898    23408920.235        2091.162  
  22568288.763      249613.980      174659.387    22568286.301       -1885.205  
  21273192.940      158559.297      109984.156    21273189.070       -1225.127  
 15  1 28  5 54 58.0000000  0  7G24G12G22G18G14G15G21               
  20492720.237      111314.363       79243.840    20492718.258        -934.399  
  23371628.128     -237393.301           0.000           0.000        2881.846  
  22693796.978     -409539.160     -287328.035    22693791.452        3019.653  
  20694359.564     -240494.918     -167092.980    20694355.037        1733.174  
  23408523.712     -286934.055     -191129.219    23408522.680        2090.859  
  22568647.559      251499.344      176128.500    22568644.688       -1885.586  
  21273426.208      159784.914      110939.176    21273422.671       -1226.001  
 15  1 28  5 54 59.0000000  0  7G24G12G22G18G14G15G21               
  20492898.035      112249.164       79972.258    20492896.227        -935.220  
  23371078.470     -240274.637           0.000           0.000        2880.947  
  22693222.849     -412558.660     -289680.891    22693216.735        3019.375  
  20694030.171     -242227.859     -168443.324    20694025.533        1732.759  
  23408125.422     -289024.570     -192758.184    23408124.587        2090.337  
  22569006.744      253385.020      177597.855    22569003.577       -1885.811  
  21273659.489      161011.309      111894.801    21273656.143       -1226.758  
 15  1 28  5 55  0.0000000  0  7G24G12G22G18G14G15G21               
  20493076.053      113184.711       80701.254    20493074.172        -935.898  
  23370530.675     -243155.813           0.000           0.000        2881.016  
  22692647.752     -415577.898     -292033.547    22692641.925        3019.155  
  20693700.286     -243960.375     -169793.344    20693695.533        1732.363  
  23407727.425     -291114.809     -194386.934    23407726.970        2090.127  
  22569365.260      255270.883      179067.367    22569362.437       -1886.060  
  21273892.769      162238.363      112850.953    21273889.911       -1227.407  
 15  1 28  5 55  1.0000000  0  7G24G12G22G18G14G15G21               
  20493254.364      114120.965       81430.805    20493252.650        -936.685  
  23369982.451     -246036.605           0.000           0.000        2880.512  
  22692073.611     -418596.934     -294386.039    22692067.648        3018.916  
  20693370.539     -245692.418     -171142.988    20693366.307        1731.787  
  23407330.115     -293204.730     -196015.438    23407329.476        2089.761  
  22569724.608      257156.949      180537.027    22569721.109       -1886.177  
  21274126.916      163466.133      113807.656    21274123.095       -1228.105  
 15  1 28  5 55  2.0000000  0  7G24G12G22G18G14G15G21               
  20493432.811      115057.910       82160.887    20493430.981        -937.197  
  23369435.181     -248917.047           0.000           0.000        2880.303  
  22691499.447     -421615.750     -296738.352    22691493.185        3018.735  
  20693041.139     -247424.063     -172492.320    20693036.413        1731.465  
  23406932.006     -295294.391     -197643.750    23406931.937        2089.546  
  22570084.075      259043.184      182006.824    22570080.580       -1886.265  
  21274360.444      164694.559      114764.867    21274357.052       -1228.711  
 15  1 28  5 55  3.0000000  0  7G24G12G22G18G14G15G21               
  20493610.878      115995.625       82891.578    20493609.125        -938.066  
  23368887.028     -251797.203           0.000           0.000        2880.078  
  22690924.641     -424634.324     -299090.480    22690918.297        3018.418  
  20692711.826     -249155.223     -173841.277    20692707.259        1730.903  
  23406534.236     -297383.699     -199271.777    23406534.135        2089.111  
  22570442.223      260929.664      183476.805    22570439.440       -1886.558  
  21274593.623      165923.723      115722.652    21274590.965       -1229.531  
 15  1 28  5 55  4.0000000  0  7G24G12G22G18G14G15G21               
  20493789.626      116934.098       83622.852    20493787.742        -938.843  
  23368337.467     -254676.910           0.000           0.000        2879.546  
  22690350.473     -427652.613     -301442.383    22690344.324        3018.223  
  20692382.612     -250885.910     -175189.863    20692377.907        1730.532  
  23406136.580     -299472.664     -200899.535    23406136.470        2088.809  
  22570801.402      262816.359      184946.957    22570798.486       -1886.797  
  21274828.230      167153.594      116680.996    21274824.864       -1230.317  
 15  1 28  5 55  5.0000000  0  7G24G12G22G18G14G15G21               
  20493968.369      117873.293       84354.699    20493966.382        -939.556  
  23367789.112     -257556.305           0.000           0.000        2878.970  
  22689776.686     -430670.656     -303794.102    22689770.285        3018.032  
  20692053.421     -252616.117     -176538.078    20692048.317        1729.951  
  23405739.083     -301561.328     -202527.051    23405739.095        2088.560  
  22571160.368      264703.258      186417.262    22571157.412       -1886.978  
  21275062.373      168384.137      117639.852    21275058.976       -1230.864  
 15  1 28  5 55  6.0000000  0  7G24G12G22G18G14G15G21               
  20494147.096      118813.219       85087.113    20494145.607        -940.337  
  23367242.596     -260435.289           0.000           0.000        2878.916  
  22689201.948     -433688.477     -306145.648    22689195.625        3017.715  
  20691724.550     -254345.875     -177885.941    20691719.363        1729.478  
  23405342.510     -303649.656     -204154.320    23405342.052        2088.130  
  22571519.600      266590.379      187887.742    22571516.423       -1887.285  
  21275296.760      169615.406      118599.285    21275293.722       -1231.606  
 15  1 28  5 55  7.0000000  0  7G24G12G22G18G14G15G21               
  20494326.223      119753.973       85820.164    20494324.271        -941.187  
  23366694.364     -263313.906           0.000           0.000        2877.866  
  22688627.976     -436705.984     -308496.961    22688621.283        3017.358  
  20691395.419     -256075.137     -179233.426    20691390.151        1728.979  
  23404944.789     -305737.594     -205781.285    23404944.013        2087.813  
  22571878.499      268477.773      189358.441    22571875.266       -1887.588  
  21275531.491      170847.441      119559.309    21275527.730       -1232.441  
 15  1 28  5 55  8.0000000  0  7G24G12G22G18G14G15G21               
  20494505.389      120695.520       86553.832    20494503.428        -941.924  
  23366145.319     -266192.215           0.000           0.000        2878.032  
  22688054.072     -439723.176     -310848.020    22688047.275        3017.041  
  20691066.495     -257803.859     -180580.477    20691061.624        1728.467  
  23404547.731     -307825.184     -207407.973    23404547.465        2087.466  
  22572237.699      270365.398      190829.320    22572234.787       -1887.764  
  21275765.594      172080.234      120519.926    21275762.499       -1233.213  
 15  1 28  5 55  9.0000000  0  7G24G12G22G18G14G15G21               
  20494684.212      121637.852       87288.113    20494682.946        -942.617  
  23365597.510     -269069.984           0.000           0.000        2877.246  
  22687479.818     -442740.098     -313198.871    22687473.511        3016.851  
  20690737.410     -259532.105     -181927.164    20690732.823        1728.130  
  23404150.004     -309912.395     -209034.363    23404150.024        2086.982  
  22572596.649      272253.309      192300.422    22572594.426       -1888.018  
  21276000.278      173313.762      121481.117    21275997.313       -1233.853  
 15  1 28  5 55 10.0000000  0  7G24G12G22G18G14G15G21               
  20494863.955      122580.930       88022.980    20494862.126        -943.423  
  23365050.744     -271947.402           0.000           0.000        2877.339  
  22686905.084     -445756.773     -315549.523    22686899.221        3016.563  
  20690408.663     -261259.836     -183273.449    20690403.848        1727.544  
  23403753.398     -311999.270     -210660.492    23403752.516        2086.738  
  22572956.414      274141.441      193771.695    22572953.477       -1888.267  
  21276235.247      174548.016      122442.863    21276231.980       -1234.624  
 15  1 28  5 55 11.0000000  0  7G24G12G22G18G14G15G21               
  20495043.644      123524.715       88758.395    20495041.787        -944.214  
  23364504.324     -274824.527           0.000           0.000        2877.271  
  22686331.275     -448773.227     -317900.004    22686325.457        3016.401  
  20690080.012     -262987.172     -184619.426    20690074.847        1727.124  
  23403356.026     -314085.836     -212286.387    23403356.115        2086.353  
  22573315.579      276029.758      195243.105    22573312.656       -1888.433  
  21276470.330      175782.930      123405.133    21276466.898       -1235.298  
 15  1 28  5 55 12.0000000  0  7G24G12G22G18G14G15G21               
  20495223.458      124469.262       89494.398    20495221.552        -944.951  
  23363957.301     -277701.223           0.000           0.000        2876.416  
  22685757.647     -451789.395     -320250.254    22685751.248        3016.060  
  20689751.331     -264713.988     -185964.996    20689746.430        1726.533  
  23402959.392     -316172.105     -213912.047    23402958.690        2086.172  
  22573674.990      277918.309      196714.699    22573671.767       -1888.687  
  21276705.260      177018.578      124367.977    21276702.251       -1235.967  
 15  1 28  5 55 13.0000000  0  7G24G12G22G18G14G15G21               
  20495403.022      125414.574       90231.016    20495401.504        -945.644  
  23363409.442     -280577.594           0.000           0.000        2876.416  
  22685184.367     -454805.262     -322600.281    22685177.440        3015.811  
  20689422.930     -266440.348     -187310.215    20689417.814        1726.162  
  23402563.111     -318257.996     -215537.410    23402561.969        2085.850  
  22574034.544      279807.105      198186.484    22574031.779       -1888.828  
  21276940.913      178254.961      125331.387    21276937.007       -1236.704  
 15  1 28  5 55 14.0000000  0  7G24G12G22G18G14G15G21               
  20495583.345      126360.680       90968.234    20495581.598        -946.440  
  23362861.738     -283453.586           0.000           0.000        2876.392  
  22684610.120     -457820.859     -324950.094    22684603.708        3015.537  
  20689094.641     -268166.180     -188655.016    20689089.459        1725.557  
  23402166.141     -320343.488     -217162.465    23402164.875        2085.352  
  22574394.178      281696.145      199658.465    22574390.957       -1889.170  
  21277176.226      179492.082      126295.379    21277172.670       -1237.534  
 15  1 28  5 55 15.0000000  0  7G24G12G22G18G14G15G21               
  20495763.534      127307.617       91706.117    20495761.524        -947.324  
  23362314.641     -286328.973           0.000           0.000        2875.298  
  22684035.951     -460836.090     -327299.621    22684029.582        3015.127  
  20688765.921     -269891.453     -189999.383    20688761.273        1725.083  
  23401768.891     -322428.578     -218787.199    23401768.431        2084.844  
  22574753.430      283585.508      201130.695    22574750.532       -1889.497  
  21277411.972      180730.016      127260.004    21277408.461       -1238.276  
 15  1 28  5 55 16.0000000  0  7G24G12G22G18G14G15G21               
  20495944.031      128255.395       92444.645    20495942.093        -948.257  
  23361766.109     -289204.012           0.000           0.000        2874.434  
  22683462.098     -463851.000     -329648.902    22683456.354        3014.790  
  20688437.771     -271616.152     -191343.309    20688433.234        1724.399  
  23401372.146     -324513.273     -220411.633    23401371.547        2084.517  
  22575113.158      285475.172      202603.156    22575110.370       -1889.834  
  21277647.758      181968.750      128225.250    21277644.254       -1239.150  
 15  1 28  5 55 17.0000000  0  7G24G12G22G18G14G15G21               
  20496124.787      129203.957       93183.789    20496122.429        -949.043  
  23361220.156     -292078.637           0.000           0.000        2874.341  
  22682888.565     -466865.578     -331997.922    22682882.405        3014.350  
  20688109.660     -273340.375     -192686.855    20688104.802        1724.023  
  23400975.107     -326597.570     -222035.754    23400974.653        2084.116  
  22575473.023      287365.109      204075.836    22575470.208       -1890.088  
  21277883.406      183208.227      129191.074    21277879.685       -1239.878  
 15  1 28  5 55 18.0000000  0  7G24G12G22G18G14G15G21               
  20496305.197      130153.332       93923.555    20496303.589        -949.766  
  23360672.923     -294952.859           0.000           0.000        2873.803  
  22682314.341     -469879.891     -334346.734    22682309.040        3014.189  
  20687781.854     -275064.055     -194029.980    20687776.715        1723.379  
  23400578.344     -328681.473     -223659.570    23400577.993        2083.691  
  22575832.378      289255.320      205548.723    22575829.401       -1890.264  
  21278119.539      184448.461      130157.488    21278115.631       -1240.562  
 15  1 28  5 55 19.0000000  0  7G24G12G22G18G14G15G21               
  20496486.000      131103.516       94663.961    20496484.111        -950.581  
  23360125.872     -297826.645           0.000           0.000        2873.354  
  22681741.372     -472893.871     -336695.285    22681735.315        3013.843  
  20687453.948     -276787.203     -195372.695    20687448.896        1722.901  
  23400182.039     -330765.008     -225283.090    23400181.547        2083.291  
  22576192.169      291145.828      207021.848    22576189.245       -1890.654  
  21278355.396      185689.480      131124.512    21278352.374       -1241.387  
 15  1 28  5 55 20.0000000  0  7G24G12G22G18G14G15G21               
  20496666.743      132054.480       95404.965    20496665.326        -951.338  
  23359578.845     -300700.059           0.000           0.000        2873.149  
  22681168.027     -475907.527     -339043.586    22681161.945        3013.555  
  20687126.102     -278509.832     -196715.004    20687121.315        1722.393  
  23399786.216     -332848.156     -226906.324    23399785.423        2082.881  
  22576552.093      293036.570      208495.148    22576549.299       -1890.884  
  21278591.946      186931.250      132092.121    21278588.976       -1242.046  
 15  1 28  5 55 21.0000000  0  7G24G12G22G18G14G15G21               
  20496848.397      133006.266       96146.617    20496846.403        -952.148  
  23359032.926     -303572.977           0.000           0.000        2872.764  
  22680594.541     -478920.871     -341391.641    22680588.600        3013.223  
  20686798.447     -280231.953     -198056.914    20686793.662        1721.919  
  23399389.561     -334930.922     -228529.258    23399389.035        2082.539  
  22576911.990      294927.594      209968.668    22576908.884       -1891.133  
  21278828.306      188173.797      133060.336    21278824.793       -1242.944  
 15  1 28  5 55 22.0000000  0  7G24G12G22G18G14G15G21               
  20497029.142      133958.906       96888.934    20497027.561        -953.086  
  23358486.154     -306445.527           0.000           0.000        2872.407  
  22680021.328     -481933.875     -343739.438    22680015.089        3012.798  
  20686470.686     -281953.496     -199398.379    20686466.149        1721.196  
  23398992.606     -337013.277     -230151.879    23398992.721        2082.168  
  22577271.504      296818.934      211442.441    22577268.876       -1891.470  
  21279064.649      189417.145      134029.180    21279061.532       -1243.784  
 15  1 28  5 55 23.0000000  0  7G24G12G22G18G14G15G21               
  20497210.783      134912.277       97631.828    20497208.814        -953.696  
  23357940.817     -309317.652           0.000           0.000        2872.031  
  22679447.685     -484946.629     -346087.043    22679441.889        3012.612  
  20686143.479     -283674.574     -200739.477    20686138.818        1720.840  
  23398597.218     -339095.293     -231774.215    23398596.362        2081.973  
  22577631.914      298710.508      212916.395    22577628.802       -1891.655  
  21279301.708      190661.211      134998.578    21279298.279       -1244.404  
 15  1 28  5 55 24.0000000  0  7G24G12G22G18G14G15G21               
  20497391.983      135866.457       98375.344    20497390.315        -954.590  
  23357395.190     -312189.355           0.000           0.000        2871.211  
  22678874.276     -487959.059     -348434.387    22678868.461        3012.251  
  20685816.140     -285395.105     -202080.156    20685811.248        1720.303  
  23398200.871     -341176.906     -233396.254    23398200.400        2081.416  
  22577991.594      300602.363      214390.566    22577988.798       -1891.992  
  21279538.189      191906.035      135968.566    21279535.280       -1245.181  
 15  1 28  5 55 25.0000000  0  7G24G12G22G18G14G15G21               
  20497574.035      136821.441       99119.484    20497572.338        -955.430  
  23356847.910     -315060.531           0.000           0.000        2870.747  
  22678301.411     -490971.211     -350781.516    22678295.375        3012.036  
  20685488.479     -287115.105     -203420.414    20685484.075        1719.717  
  23397805.488     -343258.121     -235017.984    23397804.200        2081.123  
  22578351.907      302494.488      215864.945    22578348.783       -1892.227  
  21279775.541      193151.648      136939.172    21279772.271       -1245.952  
 15  1 28  5 55 26.0000000  0  7G24G12G22G18G14G15G21               
  20497755.751      137777.254       99864.273    20497754.299        -956.196  
  23356302.706     -317931.426           0.000           0.000        2870.889  
  22677728.113     -493982.973     -353128.336    22677722.211        3011.631  
  20685161.774     -288834.559     -204760.246    20685156.493        1719.175  
  23397409.354     -345338.941     -236639.391    23397408.032        2080.610  
  22578712.079      304386.922      217339.566    22578709.195       -1892.603  
  21280012.860      194398.059      137910.406    21280009.607       -1246.816  
 15  1 28  5 55 27.0000000  0  7G24G12G22G18G14G15G21               
  20497937.953      138733.938      100609.746    20497936.586        -957.105  
  23355755.659     -320801.809           0.000           0.000        2870.234  
  22677155.132     -496994.371     -355474.871    22677148.989        3011.216  
  20684834.125     -290553.434     -206099.629    20684829.562        1718.628  
  23397013.615     -347419.320     -238260.465    23397012.487        2080.259  
  22579071.994      306279.668      218814.434    22579069.393       -1892.813  
  21280250.130      195645.293      138882.273    21280246.698       -1247.583  
 15  1 28  5 55 28.0000000  0  7G24G12G22G18G14G15G21               
  20498119.980      139691.477      101355.879    20498118.773        -958.047  
  23355208.971     -323671.711           0.000           0.000        2869.497  
  22676581.876     -500005.445     -357821.156    22676575.976        3010.898  
  20684507.718     -292271.711     -207438.547    20684502.668        1717.983  
  23396617.886     -349499.246     -239881.180    23396616.432        2079.624  
  22579432.436      308172.777      220289.582    22579429.414       -1893.345  
  21280487.619      196893.336      139854.770    21280484.229       -1248.472  
 15  1 28  5 55 29.0000000  0  7G24G12G22G18G14G15G21               
  20498302.505      140649.809      102102.625    20498300.882        -958.735  
  23354660.111     -326541.176           0.000           0.000        2869.033  
  22676009.166     -503016.125     -360167.137    22676003.138        3010.513  
  20684180.409     -293989.457     -208777.051    20684175.622        1717.480  
  23396222.013     -351578.770     -241501.582    23396220.719        2079.346  
  22579792.635      310066.172      221764.957    22579789.743       -1893.560  
  21280725.476      198142.168      140827.887    21280722.007       -1249.258  
 15  1 28  5 55 30.0000000  0  7G24G12G22G18G14G15G21               
  20498485.110      141608.941      102850.008    20498483.878        -959.546  
  23354114.794     -329410.184           0.000           0.000        2868.857  
  22675436.429     -506026.539     -362512.914    22675430.490        3010.288  
  20683853.644     -295706.691     -210115.164    20683849.065        1717.026  
  23395826.100     -353657.941     -243121.711    23395824.977        2078.984  
  22580153.073      311959.813      223240.516    22580150.433       -1893.789  
  21280962.958      199391.730      141801.566    21280960.004       -1249.946  
 15  1 28  5 55 31.0000000  0  7G24G12G22G18G14G15G21               
  20498667.843      142568.820      103597.961    20498666.058        -960.229  
  23353570.016     -332278.828           0.000           0.000        2868.379  
  22674863.542     -509036.699     -364858.492    22674857.746        3010.015  
  20683526.839     -297423.457     -211452.902    20683522.349        1716.592  
  23395431.057     -355736.789     -244741.586    23395429.602        2078.726  
  22580513.492      313853.664      224716.246    22580510.906       -1893.984  
  21281200.807      200642.039      142775.832    21281197.532       -1250.664  
 15  1 28  5 55 32.0000000  0  7G24G12G22G18G14G15G21               
  20498850.590      143529.430      104346.484    20498849.153        -960.908  
  23353023.003     -335147.184           0.000           0.000        2867.866  
  22674290.262     -512046.629     -367203.895    22674285.049        3009.848  
  20683200.675     -299139.773     -212790.289    20683195.831        1716.060  
  23395035.053     -357815.313     -246361.207    23395033.887        2078.403  
  22580874.394      315747.703      226192.121    22580871.155       -1894.038  
  21281438.985      201892.988      143750.594    21281435.605       -1251.304  
 15  1 28  5 55 33.0000000  0  7G24G12G22G18G14G15G21               
  20499033.559      144490.746      105095.563    20499031.723        -961.655  
  23352477.615     -338015.133           0.000           0.000        2867.593  
  22673717.864     -515056.348     -369549.133    22673712.415        3009.619  
  20682873.793     -300855.688     -214127.363    20682869.508        1715.703  
  23394638.980     -359893.555     -247980.613    23394638.489        2078.135  
  22581234.490      317641.965      227668.168    22581231.634       -1894.317  
  21281676.964      203144.641      144725.902    21281673.687       -1251.997  
 15  1 28  5 55 34.0000000  0  7G24G12G22G18G14G15G21               
  20499216.343      145452.789      105845.211    20499215.149        -962.461  
  23351931.287     -340882.859           0.000           0.000        2867.617  
  22673145.467     -518065.820     -371894.168    22673139.539        3009.277  
  20682547.299     -302571.137     -215464.074    20682542.693        1715.244  
  23394243.921     -361971.508     -249599.789    23394243.074        2077.788  
  22581595.231      319536.395      229144.340    22581591.771       -1894.575  
  21281915.608      204396.945      145701.727    21281912.581       -1252.656  
 15  1 28  5 55 35.0000000  0  7G24G12G22G18G14G15G21               
  20499399.980      146415.512      106595.379    20499398.316        -963.062  
  23351386.120     -343750.156           0.000           0.000        2867.329  
  22672572.877     -521075.078     -374239.039    22672567.449        3009.263  
  20682220.948     -304286.133     -216800.434    20682216.274        1714.858  
  23393849.162     -364049.141     -251218.727    23393847.679        2077.637  
  22581955.383      321431.027      230620.676    22581952.618       -1894.717  
  21282153.589      205649.965      146678.105    21282150.704       -1253.296  
 15  1 28  5 55 36.0000000  0  6G24G22G18G14G15G21                  
  20499583.083      147378.992      107346.145    20499581.521        -963.936  
  22672000.314     -524084.070     -376583.707    22671994.579        3008.809  
  20681894.590     -306000.656     -218136.430    20681890.102        1714.272  
  23393453.566     -366126.465     -252837.414    23393452.092        2077.051  
  22582315.947      323325.855      232097.164    22582312.838       -1895.000  
  21282392.466      206903.688      147655.023    21282389.385       -1254.160  
 15  1 28  5 55 37.0000000  0  6G24G22G18G14G15G21                  
  20499766.871      148343.273      108097.531    20499764.929        -964.775  
  22671427.770     -527092.773     -378928.148    22671421.884        3008.574  
  20681568.455     -307714.688     -219472.035    20681563.886        1713.770  
  23393058.160     -368203.379     -254455.781    23393056.854        2076.777  
  22582676.349      325220.961      233573.867    22582674.137       -1895.249  
  21282631.136      208158.137      148632.516    21282628.054       -1254.863  
 15  1 28  5 55 38.0000000  0  6G24G22G18G14G15G21                  
  20499950.402      149308.270      108849.480    20499948.748        -965.381  
  22670854.985     -530101.227     -381272.395    22670849.056        3008.394  
  20681242.410     -309428.246     -220807.277    20681237.883        1713.291  
  23392663.022     -370280.000     -256073.926    23392661.698        2076.514  
  22583037.028      327116.281      235050.742    22583034.347       -1895.430  
  21282870.175      209413.301      149610.566    21282866.858       -1255.503  
 15  1 28  5 55 39.0000000  0  6G24G22G18G14G15G21                  
  20500134.173      150273.984      109601.980    20500132.267        -965.981  
  22670283.049     -533109.461     -383616.477    22670276.932        3008.159  
  20680916.747     -311141.383     -222142.195    20680912.109        1713.018  
  23392268.311     -372356.336     -257691.840    23392267.135        2076.162  
  22583397.983      329011.766      236527.734    22583395.500       -1895.591  
  21283109.137      210669.141      150589.137    21283106.053       -1256.167  
 15  1 28  5 55 40.0000000  0  6G24G22G18G14G15G21                  
  20500318.024      151240.383      110355.020    20500316.310        -966.758  
  22669710.523     -536117.496     -385960.398    22669704.183        3007.930  
  20680590.634     -312854.102     -223476.781    20680586.284        1712.451  
  23391873.032     -374432.418     -259309.566    23391871.838        2075.840  
  22583758.892      330907.402      238004.859    22583756.152       -1895.728  
  21283348.209      211925.602      151568.199    21283344.786       -1256.816  
 15  1 28  5 55 41.0000000  0  6G24G22G18G14G15G21                  
  20500501.953      152207.527      111108.637    20500500.062        -967.495  
  22669137.768     -539125.273     -388304.129    22669132.120        3007.544  
  20680264.893     -314566.359     -224811.004    20680260.346        1712.046  
  23391477.295     -376508.164     -260927.016    23391476.774        2075.601  
  22584119.224      332803.273      239482.164    22584116.768       -1896.016  
  21283587.555      213182.781      152547.816    21283583.967       -1257.568  
 15  1 28  5 55 42.0000000  0  6G24G22G18G14G15G21                  
  20500686.097      153175.406      111862.828    20500684.295        -968.228  
  22668565.589     -542132.820     -390647.660    22668559.825        3007.314  
  20679939.165     -316278.145     -226144.859    20679934.148        1711.567  
  23391082.662     -378583.578     -262544.207    23391082.094        2075.273  
  22584480.339      334699.355      240959.629    22584477.449       -1896.201  
  21283826.477      214440.652      153527.980    21283823.360       -1258.237  
 15  1 28  5 55 43.0000000  0  6G24G22G18G14G15G21                  
  20500870.349      154144.078      112617.637    20500868.742        -968.975  
  22667992.887     -545140.023     -392990.930    22667987.774        3006.992  
  20679613.090     -317989.398     -227478.297    20679608.779        1711.079  
  23390687.766     -380658.590     -264161.098    23390687.245        2074.941  
  22584841.434      336595.719      242437.309    22584838.623       -1896.431  
  21284066.137      215699.328      154508.766    21284063.060       -1259.019  
 15  1 28  5 55 44.0000000  0  6G24G22G18G14G15G21                  
  20501054.839      155113.430      113372.984    20501053.094        -969.746  
  22667421.637     -548147.070     -395334.074    22667415.719        3006.909  
  20679287.561     -319700.215     -228811.402    20679283.034        1710.679  
  23390293.623     -382733.352     -265777.813    23390292.375        2074.619  
  22585201.928      338492.238      243915.121    22585199.058       -1896.587  
  21284305.728      216958.637      155490.043    21284302.681       -1259.629  
 15  1 28  5 55 45.0000000  0  6G24G22G18G14G15G21                  
  20501239.841      156083.457      114128.844    20501237.737        -970.386  
  22666848.813     -551153.887     -397677.043    22666843.631        3006.699  
  20678962.155     -321410.672     -230144.230    20678957.678        1710.234  
  23389898.205     -384807.805     -267394.258    23389897.595        2074.277  
  22585562.864      340388.914      245393.047    22585560.124       -1896.753  
  21284545.731      218218.570      156471.809    21284542.249       -1260.381  
 15  1 28  5 55 46.0000000  0  6G24G22G18G14G15G21                  
  20501424.605      157054.234      114885.293    20501422.519        -971.011  
  22666276.478     -554160.449     -400019.828    22666271.303        3006.484  
  20678637.157     -323120.633     -231476.664    20678632.350        1709.785  
  23389503.458     -386882.000     -269010.500    23389502.678        2074.092  
  22585924.058      342285.816      246871.148    22585920.980       -1897.007  
  21284785.747      219479.223      157454.129    21284782.352       -1260.986  
 15  1 28  5 55 47.0000000  0  6G24G22G18G14G15G21                  
  20501609.273      158025.730      115642.301    20501607.641        -971.826  
  22665704.557     -557166.801     -402362.441    22665698.920        3006.245  
  20678311.288     -324830.156     -232808.754    20678307.147        1709.263  
  23389109.022     -388955.863     -270626.484    23389107.733        2073.667  
  22586284.925      344182.898      248349.387    22586282.119       -1897.144  
  21285025.339      220740.547      158436.977    21285022.218       -1261.694  
 15  1 28  5 55 48.0000000  0  6G24G22G18G14G15G21                  
