     2.11           OBSERVATION DATA    G (GPS)             RINEX VERSION / TYPE
teqc  2013Mar15     gpsops              20150109 00:10:49UTCPGM / RUN BY / DATE
Linux 2.4.21-27.ELsmp|Opteron|gcc -static|Linux x86_64|=+   COMMENT
BIT 2 OF LLI FLAGS DATA COLLECTED UNDER A/S CONDITION       COMMENT
ABPO                                                        MARKER NAME
33302M001                                                   MARKER NUMBER
GGN                 JPL                                     OBSERVER / AGENCY
ZR520021812         ASHTECH UZ-12       CQ00                REC # / TYPE / VERS
CR6200342009        ASH701945G_M    SCIT                    ANT # / TYPE
  4097216.6805  4429119.0287 -2065771.3676                  APPROX POSITION XYZ
        0.0083        0.0000        0.0000                  ANTENNA: DELTA H/E/N
     1     1                                                WAVELENGTH FACT L1/2
     7    L1    L2    P1    P2    C1    S1    S2            # / TYPES OF OBSERV
    30.0000                                                 INTERVAL
                                                            COMMENT
This data is provided as a public service by NASA/JPL.      COMMENT
No warranty is expressed or implied regarding suitability   COMMENT
for use.  For further information, contact:                 COMMENT
Dave Stowers, NASA/JPL m/s 238-600                          COMMENT
4800 Oak Grove Drive, Pasadena CA 91109 USA                 COMMENT
                                                            COMMENT
Forced Modulo Decimation to 30 seconds                      COMMENT
 SNR is mapped to RINEX snr flag value [0-9]                COMMENT
  L1 & L2: min(max(int(snr_dBHz/6), 0), 9)                  COMMENT
pseudorange smoothing corrections not applied               COMMENT
  2015     1     8     0     0    0.0000000     GPS         TIME OF FIRST OBS
                                                            END OF HEADER
 15  1  8  0  0  0.0000000  0  8G02G12G05G15G18G21G24G13
   4696590.44946   3668584.54746  25127563.5194   25127563.5384   25127564.975
        41.0004         37.0004
  -5568065.21747  -4332487.78946  23839753.2594   23839756.6224   23839754.165
        45.0004         41.0004
 -12617296.80348  -9827710.09948  21921577.6764   21921579.6134   21921577.422
        52.0004         48.0004
 -18765164.23148 -14582488.47448  21737970.6604   21737972.9874   21737970.410
        53.0004         49.0004
  -3061421.71847  -2348349.92446  23764089.0254   23764091.9424   23764090.613
        44.0004         39.0004
 -11321068.08048  -8786925.88147  22332782.2514   22332784.7814   22332783.045
        48.0004         43.0004
 -22554267.56749 -17534584.95748  20575949.1834   20575954.0874   20575948.628
        56.0004         52.0004
  -2729118.17247  -2113850.64747  23262355.7544   23262358.3794   23262356.160
        47.0004         42.0004
 15  1  8  0  0 30.0000000  0  8G02G12G05G15G18G21G24G13
   4794125.36746   3744585.77546  25146123.4794   25146124.4764   25146122.833
        41.0004         37.0004
  -5650844.62047  -4396991.15446  23824000.4454   23824003.3454   23824000.906
        45.0004         41.0004
 -12573157.11348  -9793315.54147  21929976.4044   21929979.3574   21929976.114
        52.0004         47.0004
 -18763840.68749 -14581457.14448  21738223.2314   21738225.2044   21738222.805
        54.0004         49.0004
  -3153313.29447  -2419953.77146  23746603.7144   23746604.6734   23746603.023
        43.0004         39.0004
 -11351959.23248  -8810996.91747  22326902.8524   22326905.8534   22326903.930
        48.0004         43.0004
 -22583625.29349 -17557461.08948  20570362.4624   20570367.4524   20570361.786
        56.0004         52.0004
  -2677833.94347  -2073888.92647  23272115.5034   23272117.0884   23272115.779
        47.0004         42.0004
 15  1  8  0  1  0.0000000  0  8G02G12G05G15G18G21G24G13
   4891538.98246   3820492.51046  25164658.4544   25164661.7304   25164659.518
        41.0004         36.0004
  -5733706.84347  -4461559.06646  23808232.5854   23808234.9694   23808233.894
        45.0004         41.0004
 -12528640.05348  -9758626.92847  21938448.2044   21938450.4794   21938447.764
        52.0004         47.0004
 -18762496.23449 -14580409.51648  21738479.1564   21738481.1464   21738479.136
        54.0004         49.0004
  -3245211.68947  -2491562.92146  23729114.9624   23729117.6554   23729116.555
        43.0004         38.0004
 -11382305.24848  -8834643.16047  22321128.6414   22321131.6244   22321129.421
        48.0004         43.0004
 -22612482.91149 -17579947.53148  20564870.9534   20564875.9874   20564870.133
        56.0004         52.0004
  -2626637.44747  -2033995.55047  23281857.4974   23281860.2254   23281858.173
        47.0004         42.0004
 15  1  8  0  1 30.0000000  0  8G02G12G05G15G18G21G24G13
   4988820.77646   3896296.54346  25183170.7174   25183173.9824   25183172.337
        41.0004         36.0004
  -5816657.01747  -4526195.49746  23792446.6804   23792450.2624   23792448.572
        45.0004         41.0004
 -12483753.89548  -9723650.70347  21946989.5904   21946991.9204   21946988.873
        52.0004         47.0004
 -18761139.38249 -14579352.21548  21738737.4054   21738739.1984   21738736.602
        54.0004         49.0004
  -3337123.21347  -2563182.32446  23711625.6094   23711627.5974   23711626.141
        43.0004         38.0004
 -11412113.70148  -8857870.50847  22315456.1674   22315458.4524   22315456.864
        48.0004         43.0004
 -22640848.12449 -17602050.27648  20559473.3874   20559477.8944   20559472.701
        56.0004         52.0004
  -2575537.25347  -1994177.22547  23291582.1254   23291584.1494   23291582.075
        47.0004         42.0004
 15  1  8  0  2  0.0000000  0  8G02G12G05G15G18G21G24G13
   5085975.54746   3972001.57846  25201658.4544   25201660.9544   25201659.428
        41.0004         37.0004
  -5899686.53147  -4590893.77046  23776648.2834   23776650.0704   23776648.439
        46.0004         41.0004
 -12438491.84648  -9688381.58747  21955602.6324   21955605.0574   21955602.715
        52.0004         47.0004
 -18759763.86449 -14578280.37448  21738998.7734   21739001.0364   21738998.353
        54.0004         49.0004
  -3429039.79947  -2634805.64946  23694133.7994   23694136.1294   23694133.277
        43.0004         38.0004
 -11441377.65247  -8880673.60347  22309888.8094   22309889.6924   22309888.041
        47.0004         42.0004
 -22668714.66249 -17623764.45048  20554170.4874   20554175.2894   20554169.926
        56.0004         52.0004
  -2524526.91047  -1954428.91647  23301288.6694   23301290.9674   23301288.945
        47.0004         42.0004
 15  1  8  0  2 30.0000000  0  8G02G12G05G15G18G21G24G13
   5182999.01346   4047604.29846  25220121.9324   25220124.6834   25220123.954
        41.0004         37.0004
  -5982794.49247  -4655653.15646  23760832.8364   23760835.2924   23760832.492
        46.0004         41.0004
 -12392856.00748  -9652821.19647  21964287.3444   21964289.5674   21964286.988
        52.0004         47.0004
 -18758372.83648 -14577196.45048  21739263.2594   21739265.8844   21739262.958
        53.0004         49.0004
  -3520961.83147  -2706433.20946  23676641.2464   23676643.6434   23676642.390
        43.0004         38.0004
 -11470098.49347  -8903053.45547  22304423.0274   22304423.9404   22304423.003
        47.0004         42.0004
 -22696084.02549 -17645091.21048  20548962.3144   20548967.0384   20548961.623
        56.0004         52.0004
  -2473608.99647  -1914752.60947  23310977.7494   23310980.3454   23310977.611
        47.0004         42.0004
 15  1  8  0  3  0.0000000  0  8G02G12G05G15G18G21G24G13
   5279889.14646   4123103.15346  25238561.2484   25238563.1124   25238559.319
        41.0004         37.0004
  -6065978.29747  -4720471.64946  23745003.3304   23745006.3444   23745003.436
        46.0004         41.0004
 -12346845.84748  -9616969.13247  21973042.6104   21973045.1084   21973042.620
        52.0004         47.0004
 -18756966.63248 -14576100.69848  21739530.9184   21739533.3094   21739530.181
        53.0004         49.0004
  -3612887.70847  -2778063.77646  23659148.9734   23659151.9224   23659148.891
        43.0004         39.0004
 -11498275.57947  -8925009.61547  22299059.7334   22299061.6794   22299060.520
        46.0004         42.0004
 -22722956.89349 -17666031.08548  20543848.4174   20543853.3474   20543848.098
        56.0004         52.0004
  -2422783.65647  -1875148.44947  23320650.1304   23320653.3514   23320649.436
        46.0004         42.0004
 15  1  8  0  3 30.0000000  0  8G02G12G05G15G18G21G24G13
   5376644.09247   4198496.64246  25256970.7924   25256973.3324   25256972.361
        42.0004         37.0004
  -6149235.56347  -4785347.37346  23729160.3784   23729163.4344   23729159.773
        46.0004         41.0004
 -12300461.27748  -9580825.31747  21981869.4864   21981871.7354   21981869.032
        52.0004         47.0004
 -18755545.32048 -14574993.17248  21739801.3904   21739803.7534   21739800.998
        53.0004         49.0004
  -3704815.34247  -2849695.70546  23641655.2724   23641657.9794   23641656.145
        43.0004         39.0004
 -11525908.85847  -8946542.04647  22293801.6284   22293804.8394   22293802.724
        46.0004         42.0004
 -22749332.36949 -17686583.38548  20538829.3884   20538834.1904   20538828.710
        56.0004         52.0004
  -2372050.90547  -1835616.44847  23330303.2174   23330305.7094   23330303.281
        46.0004         42.0004
 15  1  8  0  4  0.0000000  0  8G02G12G05G15G18G21G24G13
   5473261.01947   4273782.60246  25275357.4014   25275359.1884   25275360.083
        42.0004         37.0004
  -6232564.37847  -4850278.86646  23713303.3654   23713306.5304   23713303.668
        45.0004         41.0004
 -12253703.31448  -9544390.53647  21990766.6664   21990769.6444   21990766.204
        52.0004         47.0004
 -18754110.29048 -14573874.95648  21740074.2474   21740076.6814   21740073.726
        53.0004         49.0004
  -3796744.02947  -2921328.46046  23624162.6864   23624164.5354   23624163.538
        44.0004         39.0004
 -11552998.68347  -8967651.00747  22288647.6274   22288648.8164   22288648.112
        46.0004         42.0004
 -22775211.87749 -17706749.22148  20533904.7054   20533909.5624   20533904.279
        56.0004         52.0004
  -2321411.91947  -1796157.49146  23339940.5674   23339942.5474   23339939.544
        46.0004         41.0004
 15  1  8  0  4 30.0000000  0  8G02G12G05G15G18G21G24G13
   5569740.15747   4348961.18646  25293717.4334   25293718.9324   25293717.732
        42.0004         37.0004
  -6315960.94247  -4915263.13746  23697432.9244   23697435.8694   23697433.973
        45.0004         41.0004
 -12206569.76248  -9507663.10147  21999736.0894   21999738.9824   21999735.631
        52.0004         47.0004
 -18752660.16148 -14572744.98148  21740350.6734   21740352.3924   21740350.096
        53.0004         49.0004
  -3888670.02747  -2992959.11646  23606669.1504   23606670.7354   23606670.046
        44.0004         39.0004
 -11579542.98647  -8988334.86646  22283597.0194   22283597.9184   22283596.447
        46.0004         41.0004
 -22800593.62449 -17726527.18548  20529074.7584   20529079.5154   20529074.282
        56.0004         52.0004
  -2270865.03247  -1756770.31246  23349558.4114   23349560.4254   23349557.866
        46.0004         41.0004
 15  1  8  0  5  0.0000000  0  8G02G12G05G15G18G21G24G13
   5666080.93147   4424031.96346  25312048.9664   25312049.8944   25312050.018
        42.0004         37.0004
  -6399419.52447  -4980295.74446  23681550.9954   23681554.2134   23681551.491
        45.0004         41.0004
 -12159058.55848  -9470641.38947  22008777.4304   22008779.6664   22008777.012
        52.0004         47.0004
 -18751193.49348 -14571602.11048  21740629.3134   21740631.5004   21740628.891
        53.0004         49.0004
  -3980590.23147  -3064585.24446  23589177.6264   23589179.8164   23589177.540
        44.0004         39.0004
 -11605540.00847  -9008592.27646  22278649.0654   22278652.0064   22278649.723
        46.0004         41.0004
 -22825475.46149 -17745915.61348  20524339.7244   20524344.7764   20524338.834
        56.0004         52.0004
  -2220408.60947  -1717453.61146  23359160.2484   23359162.5394   23359160.409
        46.0004         41.0004
 15  1  8  0  5 30.0000000  0  8G02G12G05G15G18G21G24G13
   5762272.75247   4498986.69646  25330354.3994   25330354.6024   25330354.171
        42.0004         37.0004
  -6482947.22647  -5045382.21846  23665657.1124   23665659.0834   23665656.443
        45.0004         41.0004
 -12111178.73848  -9433332.44147  22017889.1424   22017890.8944   22017888.104
        52.0004         47.0004
 -18749719.33548 -14570453.41248  21740910.1254   21740911.9914   21740909.673
        53.0004         49.0004
  -4072511.41847  -3136212.13846  23571685.0254   23571687.1994   23571685.945
        43.0004         39.0004
 -11630997.91547  -9028429.60847  22273804.5624   22273806.1004   22273805.129
        46.0004         42.0004
 -22849866.47849 -17764921.58048  20519698.5934   20519703.0514   20519698.020
        56.0004         52.0004
  -2170051.76447  -1678214.51546  23368744.0304   23368745.2014   23368742.395
        46.0004         41.0004
 15  1  8  0  6  0.0000000  0  8G02G12G05G15G18G21G24G13
   5858323.78947   4573831.69946  25348632.1794   25348634.4424   25348631.568
        42.0004         37.0004
  -6566530.61647  -5110512.07546  23649751.5084   23649754.2934   23649751.404
        45.0004         41.0004
 -12062919.83248  -9395728.10247  22027072.1354   22027074.6334   22027071.891
        52.0004         47.0004
 -18748228.04148 -14569291.35248  21741193.7524   21741195.9594   21741193.416
        53.0004         49.0004
  -4164421.29747  -3207830.21846  23554195.6124   23554197.5444   23554195.870
        43.0004         39.0004
 -11655905.48847  -9047838.12347  22269064.9104   22269066.5914   22269064.956
        47.0004         42.0004
 -22873756.31149 -17783537.02048  20515152.0744   20515156.8984   20515151.446
        56.0004         52.0004
  -2119784.38047  -1639045.13846  23378308.3094   23378310.6294   23378309.154
        46.0004         41.0004
 15  1  8  0  6 30.0000000  0  8G02G12G05G15G18G21G24G13
   5954229.60647   4648563.58646  25366880.9644   25366884.0414   25366880.881
        42.0004         37.0004
  -6650169.75747  -5175685.38246  23633835.0584   23633837.5594   23633835.224
        45.0004         41.0004
 -12014284.44148  -9357830.39447  22036327.1754   22036329.3254   22036326.354
        52.0004         47.0004
 -18746722.62648 -14568118.29448  21741480.0264   21741482.2484   21741479.726
        53.0004         49.0004
  -4256320.74047  -3279440.15046  23536708.4984   23536708.3764   23536707.623
        43.0004         39.0004
 -11680265.69147  -9066820.10047  22264429.5424   22264431.2234   22264429.004
        47.0004         43.0004
 -22897147.60649 -17801763.98148  20510701.2264   20510705.7154   20510700.683
        56.0004         52.0004
  -2069609.05947  -1599947.47146  23387857.6164   23387858.6644   23387856.421
        46.0004         41.0004
 15  1  8  0  7  0.0000000  0  8G02G12G05G15G18G21G24G13
   6049985.04347   4723178.28046  25385104.4134   25385106.6834   25385104.447
        42.0004         37.0004
  -6733865.64247  -5240902.91646  23617908.6304   23617911.6584   23617909.284
        46.0004         41.0004
 -11965275.98948  -9319641.98847  22045653.2014   22045655.3364   22045653.097
        52.0004         47.0004
 -18745206.96748 -14566937.26048  21741769.0604   21741770.5604   21741768.222
        53.0004         49.0004
  -4348211.77747  -3351043.54146  23519221.5274   23519223.5034   23519221.402
        43.0004         39.0004
 -11704081.70147  -9085378.01547  22259896.7674   22259899.2504   22259897.302
        47.0004         43.0004
 -22920044.34849 -17819605.57648  20506343.7424   20506348.4454   20506343.244
        56.0004         52.0004
  -2019529.55847  -1560924.48646  23397385.8884   23397389.8984   23397386.419
        46.0004         41.0004
 15  1  8  0  7 30.0000000  0  8G02G12G05G15G18G21G24G13
   6145589.05547   4797674.99046  25403294.9254   25403298.4184   25403298.021
        42.0004         37.0004
  -6817613.84247  -5306161.21746  23601971.9034   23601974.6624   23601972.460
        46.0004         41.0004
 -11915893.01748  -9281161.74847  22055050.7014   22055052.1674   22055049.516
        52.0004         47.0004
 -18743679.90648 -14565747.33348  21742059.2554   21742060.9054   21742058.983
        53.0004         48.0004
  -4440090.79347  -3422637.57346  23501737.6274   23501739.7444   23501738.494
        44.0004         39.0004
 -11727351.76148  -9103510.52647  22255469.2924   22255469.9734   22255468.980
        48.0004         44.0004
 -22942445.08949 -17837060.67748  20502080.9324   20502085.8604   20502080.397
        56.0004         52.0004
  -1969544.57547  -1521975.15046  23406898.1514   23406899.9754   23406898.168
        46.0004         41.0004
 15  1  8  0  8  0.0000000  0  8G02G12G05G15G18G21G24G13
   6241041.75347   4872053.80546  25421464.5634   25421463.7374   25421462.079
        42.0004         37.0004
  -6901409.98447  -5371456.86946  23586025.3934   23586028.9584   23586025.049
        46.0004         41.0004
 -11866133.42148  -9242388.04347  22064519.2144   22064521.7344   22064518.492
        52.0004         47.0004
 -18742139.77648 -14564547.23148  21742352.5474   21742354.3094   21742351.872
        53.0004         48.0004
  -4531954.28647  -3494219.52646  23484255.4894   23484258.7844   23484257.138
        44.0004         39.0004
 -11750074.17848  -9121216.31647  22251144.5284   22251147.2764   22251145.131
        49.0004         45.0004
 -22964347.90149 -17854127.79148  20497913.3884   20497917.7294   20497912.526
        56.0004         52.0004
  -1919652.21447  -1483097.99446  23416392.7114   23416394.9194   23416392.614
        46.0004         41.0004
 15  1  8  0  8 30.0000000  0  8G02G12G05G15G18G21G24G13
   6336340.23546   4946312.46646  25439594.0984   25439600.2594   25439596.462
        41.0004         37.0004
  -6985252.60147  -5436788.73547  23570070.5174   23570073.4364   23570070.385
        46.0004         42.0004
 -11815999.02548  -9203322.29047  22074059.1754   22074061.7144   22074058.531
        52.0004         47.0004
 -18740588.69748 -14563338.59448  21742647.7454   21742649.3304   21742647.010
        53.0004         49.0004
  -4623801.83347  -3565789.03846  23466778.8804   23466779.3664   23466778.334
        44.0004         39.0004
 -11772249.83948  -9138496.05947  22246925.4794   22246927.2904   22246925.399
        49.0004         45.0004
 -22985754.72449 -17870808.42148  20493839.3724   20493844.2114   20493838.731
        56.0004         52.0004
  -1869854.25047  -1444294.40046  23425870.6124   23425871.5954   23425869.567
        46.0004         41.0004
 15  1  8  0  9  0.0000000  0  8G02G12G05G15G18G21G24G13
   6431479.57146   5020447.11946  25457697.7134   25457701.0534   25457698.494
        41.0004         36.0004
  -7069142.20147  -5502157.21147  23554107.7084   23554110.9624   23554107.167
        46.0004         42.0004
 -11765492.35248  -9163966.45547  22083670.5714   22083672.7574   22083670.123
        52.0004         47.0004
 -18739029.29048 -14562123.46448  21742943.9474   21742946.7534   21742943.681
        53.0004         49.0004
  -4715634.23347  -3637346.75246  23449302.4784   23449304.7564   23449303.610
        44.0004         40.0004
 -11793881.35448  -9155351.79247  22242808.4194   22242811.4704   22242808.876
        50.0004         45.0004
 -23006668.56849 -17887104.90848  20489859.8314   20489864.5274   20489859.317
        56.0004         52.0004
  -1820153.47747  -1405566.51946  23435326.8694   23435328.0224   23435326.168
        46.0004         41.0004
 15  1  8  0  9 30.0000000  0  8G02G12G05G15G18G21G24G13
   6526462.10346   5094459.59646  25475773.3914   25475778.7754   25475774.675
        41.0004         36.0004
  -7153071.60747  -5567556.70547  23538136.9884   23538139.6024   23538136.378
        47.0004         42.0004
 -11714609.46248  -9124317.45447  22093353.3644   22093355.7814   22093353.254
        52.0004         47.0004
 -18737458.07748 -14560899.13748  21743243.4054   21743245.0374   21743242.960
        53.0004         49.0004
  -4807445.69747  -3708888.14446  23431832.3144   23431834.0154   23431832.395
        44.0004         40.0004
 -11814964.84148  -9171780.47947  22238796.7084   22238798.7234   22238797.222
        50.0004         46.0004
 -23027085.01849 -17903013.81248  20485974.6614   20485979.3734   20485973.985
        56.0004         52.0004
  -1770545.93147  -1366911.29446  23444766.9874   23444768.3674   23444766.050
        46.0004         41.0004
 15  1  8  0 10  0.0000000  0  8G02G12G05G15G18G21G24G13
   6621285.04946   5168347.72046  25493820.7864   25493821.5344   25493817.896
        40.0004         36.0004
  -7237038.35247  -5632985.29347  23522158.1594   23522161.7974   23522158.509
        47.0004         42.0004
 -11663350.95548  -9084375.77247  22103107.5854   22103109.6044   22103107.715
        52.0004         47.0004
 -18735875.91548 -14559666.27348  21743544.2954   21743546.5854   21743543.467
        53.0004         48.0004
  -4899234.75047  -3780412.07346  23414365.3124   23414367.2814   23414365.211
        45.0004         40.0004
 -11835500.58448  -9187782.35547  22234889.0914   22234890.4344   22234889.040
        51.0004         46.0004
 -23047005.36749 -17918536.14948  20482184.0184   20482188.8184   20482183.387
        56.0004         52.0004
  -1721032.15447  -1328329.12546  23454188.8594   23454190.2474   23454187.965
        46.0004         41.0004
 15  1  8  0 10 30.0000000  0  8G02G12G05G15G18G21G24G13
   6715945.33446   5242109.11546  25511831.0114   25511832.5044   25511830.933
        40.0004         36.0004
  -7321041.35047  -5698442.12947  23506173.5784   23506176.0864   23506173.480
        47.0004         42.0004
 -11611718.06648  -9044142.36347  22112933.4434   22112934.9664   22112932.644
        52.0004         47.0004
 -18734284.31548 -14558426.06548  21743846.9634   21743848.8374   21743846.562
        53.0004         48.0004
  -4991000.93247  -3851918.17946  23396902.4044   23396904.6754   23396902.265
        45.0004         40.0004
 -11855489.84848  -9203358.41847  22231085.1634   22231087.2074   22231085.480
        51.0004         46.0004
 -23066430.77949 -17933672.81848  20478487.7944   20478492.2894   20478487.059
        57.0004         52.0004
  -1671613.44147  -1289821.04546  23463594.2124   23463593.7624   23463593.208
        46.0004         41.0004
 15  1  8  0 11  0.0000000  0  8G02G12G05G15G18G21G24G13
   6810442.56446   5315743.42146  25529813.2704   25529814.6804   25529815.782
        40.0004         36.0004
  -7405076.62547  -5763924.11147  23490181.3844   23490185.1374   23490181.209
        47.0004         42.0004
 -11559709.63348  -9003616.31947  22122829.6984   22122831.9934   22122829.373
        52.0004         47.0004
 -18732682.32048 -14557177.74748  21744151.8394   21744154.3274   21744151.474
        53.0004         49.0004
  -5082740.92147  -3923403.87746  23379444.0694   23379446.3114   23379444.997
        44.0004         40.0004
 -11874931.08748  -9218507.43047  22227385.7334   22227387.2114   22227385.892
        51.0004         46.0004
 -23085360.63649 -17948423.33848  20474885.3074   20474889.9724   20474884.714
        57.0004         52.0004
  -1622288.46947  -1251385.99446  23472978.6444   23472981.2424   23472979.102
        46.0004         41.0004
 15  1  8  0 11 30.0000000  0  7G12G05G15G18G21G24G13
  -7489140.49047  -5829428.37347  23474184.6734   23474187.4514   23474183.986
        47.0004         42.0004
 -11507325.24448  -8962797.32147  22132798.1334   22132800.7844   22132797.679
        51.0004         47.0004
 -18731069.32748 -14555920.86848  21744458.6214   21744461.1084   21744458.081
        53.0004         48.0004
  -5174452.12147  -3994867.12946  23361991.6834   23361995.6194   23361992.924
        44.0004         40.0004
 -11893823.81948  -9233229.02747  22223790.6834   22223792.1434   22223790.846
        51.0004         46.0004
 -23103793.98349 -17962786.96648  20471377.5064   20471382.3724   20471376.944
        57.0004         52.0004
  -1573056.81247  -1213023.66346  23482347.2944   23482348.9374   23482347.208
        46.0004         41.0004
 15  1  8  0 12  0.0000000  0  7G12G05G15G18G21G24G13
  -7573234.06447  -5894955.79647  23458181.7114   23458185.1254   23458181.836
        47.0004         42.0004
 -11454568.43848  -8921688.12547  22142837.6444   22142840.1004   22142837.298
        52.0004         47.0004
 -18729449.30348 -14554658.50748  21744767.5914   21744769.5474   21744767.266
        53.0004         49.0004
  -5266136.39047  -4066309.38746  23344545.8354   23344549.5404   23344545.836
        44.0004         40.0004
 -11912171.45348  -9247525.86347  22220298.1934   22220300.5824   22220298.943
        50.0004         45.0004
 -23121735.49949 -17976767.35248  20467963.4604   20467968.1474   20467962.907
        57.0004         52.0004
  -1523921.84147  -1174736.67446  23491698.4294   23491698.9454   23491696.118
        46.0004         41.0004
 15  1  8  0 12 30.0000000  0  7G12G05G15G18G21G24G13
  -7657353.84147  -5960503.61846  23442173.2294   23442177.7934   23442171.958
        46.0004         41.0004
 -11401438.38048  -8880288.08147  22152947.8914   22152950.2694   22152947.162
        51.0004         47.0004
 -18727821.91748 -14553390.40048  21745076.9704   21745078.9454   21745076.237
        53.0004         48.0004
  -5357791.00947  -4137728.55446  23327104.8614   23327106.7684   23327105.006
        44.0004         40.0004
 -11929973.21348  -9261397.35347  22216911.3964   22216913.3854   22216911.688
        50.0004         45.0004
 -23139183.86149 -17990363.46048  20464642.8364   20464647.5404   20464642.399
        56.0004         52.0004
  -1474882.96847  -1136524.57546  23501030.3004   23501031.4254   23501028.785
        46.0004         41.0004
 15  1  8  0 13  0.0000000  0  7G12G05G15G18G21G24G13
  -7741495.40547  -6026068.43546  23426161.6974   23426166.1974   23426162.285
        46.0004         41.0004
 -11347934.30548  -8838596.60747  22163129.2584   22163131.7204   22163129.146
        51.0004         47.0004
 -18726186.47448 -14552116.02148  21745388.3104   21745390.6094   21745387.904
        53.0004         49.0004
  -5449413.16047  -4209122.42246  23309670.1574   23309671.6094   23309670.515
        44.0004         40.0004
 -11947228.44748  -9274842.95847  22213627.7784   22213630.0694   22213627.871
        49.0004         44.0004
 -23156139.14149 -18003575.35748  20461416.2944   20461421.0734   20461415.647
        56.0004         52.0004
  -1425939.18047  -1098386.56546  23510341.9424   23510344.9574   23510343.080
        46.0004         41.0004
 15  1  8  0 13 30.0000000  0  7G12G05G15G18G21G24G13
  -7825655.88747  -6091647.99146  23410146.6294   23410151.0024   23410146.970
        46.0004         41.0004
 -11294056.15848  -8796613.63747  22173382.2144   22173384.1904   22173381.731
        51.0004         47.0004
 -18724542.44948 -14550834.95248  21745701.2994   21745702.6534   21745701.132
        53.0004         49.0004
  -5541000.02747  -4280488.80446  23292241.6054   23292242.8854   23292242.080
        44.0004         40.0004
 -11963936.40748  -9287862.12747  22210448.9244   22210451.4694   22210448.500
        49.0004         44.0004
 -23172601.29049 -18016402.97948  20458283.8544   20458288.5564   20458283.480
        56.0004         52.0004
  -1377089.82847  -1060322.13546  23519639.9624   23519640.7664   23519639.590
        46.0004         41.0004
 15  1  8  0 14  0.0000000  0  7G12G05G15G18G21G24G13
  -7909829.93247  -6157238.10947  23394128.7174   23394131.6944   23394129.335
        46.0004         42.0004
 -11239801.35248  -8754337.17747  22183706.6574   22183708.4394   22183706.193
        51.0004         47.0004
 -18722887.31848 -14549545.22648  21746015.9734   21746018.3144   21746015.417
        53.0004         49.0004
  -5632547.28547  -4351824.32646  23274820.3704   23274822.8664   23274820.947
        44.0004         40.0004
 -11980094.80948  -9300453.08647  22207372.3674   22207376.7034   22207373.690
        49.0004         44.0004
 -23188567.73049 -18028844.34648  20455245.4684   20455250.2064   20455244.829
        56.0004         52.0004
  -1328332.48047  -1022329.40546  23528917.8874   23528918.4684   23528916.583
        46.0004         41.0004
 15  1  8  0 14 30.0000000  0  7G12G05G15G18G21G24G13
  -7994019.61747  -6222840.42647  23378108.7274   23378111.3554   23378108.255
        46.0004         42.0004
 -11185175.17748  -8711771.32847  22194101.2134   22194103.8054   22194101.053
        51.0004         46.0004
 -18721226.57048 -14548251.13748  21746332.1524   21746333.9564   21746331.782
        53.0004         49.0004
  -5724058.04147  -4423131.40146  23257405.7474   23257408.5094   23257407.468
        45.0004         40.0004
 -11995708.95748  -9312619.96947  22204403.5974   22204404.2214   22204403.008
        49.0004         44.0004
 -23204043.88449 -18040903.67048  20452300.3474   20452305.1834   20452299.992
        56.0004         52.0004
  -1279672.25247   -984412.35546  23538176.2104   23538178.1814   23538177.325
        46.0004         41.0004
 15  1  8  0 15  0.0000000  0  7G12G05G15G18G21G24G13
  -8078220.50847  -6288451.47247  23362085.6154   23362088.5274   23362084.314
        46.0004         42.0004
 -11130176.30648  -8668915.06947  22204567.3274   22204568.8854   22204566.334
        51.0004         46.0004
 -18719558.96748 -14546951.69048  21746649.6104   21746651.3954   21746649.301
        53.0004         49.0004
  -5815528.68547  -4494407.21746  23240000.7434   23240003.5454   23240001.718
        45.0004         40.0004
 -12010777.25648  -9324361.51747  22201534.2394   22201537.8594   22201535.508
        49.0004         45.0004
 -23219028.96449 -18052580.34148  20449448.9124   20449453.5634   20449448.237
        56.0004         52.0004
  -1231107.19547   -946569.45746  23547418.0684   23547420.1784   23547418.612
        46.0004         41.0004
 15  1  8  0 15 30.0000000  0  7G12G05G15G18G21G24G13
  -8162427.74247  -6354067.45247  23346062.1974   23346063.8344   23346061.218
        47.0004         42.0004
 -11074802.71148  -8625766.81947  22215104.5174   22215106.2764   22215103.636
        51.0004         46.0004
 -18717882.38748 -14545645.26048  21746968.0324   21746969.9664   21746967.615
        53.0004         49.0004
  -5906955.34247  -4565648.76246  23222602.7724   23222604.9254   23222603.244
        45.0004         40.0004
 -12025297.99348  -9335676.44447  22198771.4304   22198773.8334   22198771.887
        49.0004         45.0004
 -23233521.38049 -18063873.11248  20446690.9604   20446695.6334   20446690.599
        56.0004         52.0004
  -1182635.41647   -908799.25546  23556643.0144   23556644.0594   23556642.724
        46.0004         41.0004
 15  1  8  0 16  0.0000000  0  7G12G05G15G18G21G24G13
  -8246642.51547  -6419689.31847  23330036.4154   23330038.6694   23330035.683
        47.0004         42.0004
 -11019058.22248  -8582329.55647  22225712.0324   22225714.2524   22225711.528
        51.0004         46.0004
 -18716200.91448 -14544335.01248  21747288.5024   21747290.6264   21747288.298
        53.0004         49.0004
  -5998339.61047  -4636857.27346  23205213.1154   23205213.3214   23205213.271
        45.0004         40.0004
 -12039274.77048  -9346567.41147  22196112.5594   22196114.3314   22196112.511
        50.0004         45.0004
 -23247524.75249 -18074784.81848  20444026.2504   20444030.7084   20444025.883
        56.0004         52.0004
  -1134260.45747   -871104.47346  23565847.5524   23565849.9064   23565846.865
        46.0004         41.0004
 15  1  8  0 16 30.0000000  0  7G12G05G15G18G21G24G13
  -8330859.16947  -6485312.65447  23314010.4174   23314012.2764   23314010.625
        47.0004         42.0004
 -10962940.62848  -8538601.56747  22236391.1184   22236393.7434   22236390.763
        51.0004         46.0004
 -18714512.20148 -14543019.12248  21747609.9824   21747611.3754   21747609.296
        53.0004         49.0004
  -6089676.63447  -4708028.97746  23187831.7794   23187834.4284   23187832.302
        45.0004         40.0004
 -12052705.41048  -9357032.85447  22193555.8894   22193557.9074   22193556.226
        50.0004         45.0004
 -23261037.73249 -18085314.39548  20441454.8724   20441459.4964   20441454.558
        57.0004         52.0004
  -1085979.86447   -833483.25746  23575035.5974   23575036.3944   23575035.662
        46.0004         41.0004
 15  1  8  0 17  0.0000000  0  7G12G05G15G18G21G24G13
  -8415076.06747  -6550936.18947  23297985.5764   23297985.9904   23297985.006
        47.0004         42.0004
 -10906451.56848  -8494584.12847  22247140.9184   22247143.0344   22247139.940
        51.0004         46.0004
 -18712817.32048 -14541698.42648  21747932.1374   21747934.6784   21747931.835
        53.0004         49.0004
  -6180965.95247  -4779163.49746  23170460.3644   23170461.1304   23170460.505
        45.0004         41.0004
 -12065591.81948  -9367074.19947  22191103.1204   22191106.4204   22191104.062
        50.0004         45.0004
 -23274061.28449 -18095462.59748  20438976.4324   20438981.2364   20438975.770
        57.0004         52.0004
  -1037794.64447   -795936.32046  23584204.5844   23584207.0044   23584204.585
        46.0004         41.0004
 15  1  8  0 17 30.0000000  0  7G12G05G15G18G21G24G13
  -8499284.37947  -6616553.02147  23281960.8114   23281961.7864   23281960.761
        47.0004         42.0004
 -10849585.60648  -8450273.00347  22257962.0904   22257964.2724   22257961.462
        51.0004         46.0004
 -18711110.81048 -14540368.67148  21748257.4614   21748258.4524   21748256.808
        53.0004         49.0004
  -6272200.02247  -4850254.96746  23153098.8654   23153100.9484   23153099.062
        45.0004         41.0004
 -12077928.07848  -9376686.83647  22188756.8414   22188757.9844   22188756.665
        49.0004         45.0004
 -23286590.68649 -18105225.75748  20436591.9384   20436596.9484   20436591.294
        57.0004         52.0004
   -989698.84847   -758459.10146  23593356.7774   23593358.6244   23593357.168
        46.0004         41.0004
 15  1  8  0 18  0.0000000  0  7G12G05G15G18G21G24G13
  -8583494.30647  -6682171.10547  23265935.1974   23265937.4314   23265935.374
        47.0004         42.0004
 -10792355.80648  -8405678.35647  22268852.6264   22268855.0674   22268851.914
        51.0004         46.0004
 -18709405.83748 -14539040.10548  21748581.4334   21748583.2874   21748581.031
        53.0004         49.0004
  -6363389.00147  -4921311.28946  23135744.8744   23135748.4044   23135746.231
        46.0004         41.0004
 -12089727.35348  -9385881.03147  22186510.2164   22186513.1774   22186511.418
        49.0004         45.0004
 -23298639.36949 -18114614.32448  20434299.2274   20434304.0574   20434298.929
        57.0004         52.0004
   -941705.49547   -721061.68046  23602489.2694   23602491.4564   23602489.577
        46.0004         41.0004
 15  1  8  0 18 30.0000000  0  7G12G05G15G18G21G24G13
  -8667688.56347  -6747776.98747  23249914.3544   23249914.4964   23249914.665
        47.0004         42.0004
 -10734748.11248  -8360789.25047  22279814.7424   22279816.8724   22279814.996
        51.0004         46.0004
 -18707687.85148 -14537701.40648  21748908.2614   21748910.5854   21748907.911
        53.0004         49.0004
  -6454517.08347  -4992320.15846  23118405.1974   23118407.7094   23118405.162
        46.0004         41.0004
 -12100975.50548  -9394645.83047  22184369.8904   22184372.8974   22184370.791
        50.0004         45.0004
 -23310193.79049 -18123617.75348  20432100.7794   20432105.3644   20432099.956
        57.0004         52.0004
   -893799.71647   -683732.52446  23611606.7204   23611608.7904   23611606.127
        46.0004         41.0004
 15  1  8  0 19  0.0000000  0  7G12G05G15G18G21G24G13
  -8751872.08647  -6813374.49447  23233894.4844   23233896.2734   23233894.784
        47.0004         42.0004
 -10676770.33748  -8315611.76147  22290848.0874   22290849.5244   22290847.114
        51.0004         46.0004
 -18705964.93848 -14536358.86848  21749236.0864   21749238.6224   21749235.507
        53.0004         49.0004
  -6545589.54747  -5063285.69046  23101074.3114   23101076.3774   23101074.410
        46.0004         41.0004
 -12111680.88348  -9402987.70547  22182334.0694   22182336.2224   22182333.576
        49.0004         45.0004
 -23321261.64749 -18132242.04948  20429994.6154   20429999.0264   20429994.112
        57.0004         52.0004
   -845989.34347   -646477.67646  23620704.0814   23620705.7334   23620703.487
        46.0004         41.0004
 15  1  8  0 19 30.0000000  0  7G12G05G15G18G21G24G13
  -8836044.33347  -6878963.21847  23217876.7084   23217876.9834   23217876.061
        47.0004         42.0004
 -10618425.31348  -8270148.11647  22301950.6364   22301952.3024   22301949.743
        51.0004         46.0004
 -18704239.12348 -14535014.06348  21749564.6744   21749566.8314   21749564.625
        53.0004         49.0004
  -6636606.86047  -5134208.25846  23083754.3544   23083755.8934   23083755.396
        46.0004         41.0004
 -12121845.71048  -9410908.36447  22180398.5204   22180400.4704   22180399.325
        49.0004         44.0004
 -23331846.14949 -18140489.69648  20427980.4564   20427985.0014   20427979.855
        57.0004         52.0004
   -798276.30547   -609298.71746  23629783.4614   23629785.6714   23629783.574
        46.0004         41.0004
 15  1  8  0 20  0.0000000  0  7G12G05G15G18G21G24G13
  -8920197.63147  -6944537.17947  23201862.9964   23201864.4194   23201862.594
        47.0004         43.0004
 -10559708.91248  -8224395.08747  22313123.8634   22313125.2444   22313123.038
        51.0004         46.0004
 -18702506.23748 -14533663.74948  21749894.2624   21749896.2594   21749893.459
        53.0004         49.0004
  -6727562.32447  -5205082.64446  23066445.9324   23066447.7644   23066447.470
        46.0004         41.0004
 -12131466.39448  -9418405.00547  22178568.5964   22178570.0154   22178568.312
        49.0004         44.0004
 -23341943.54749 -18148357.77448  20426059.1454   20426063.7334   20426058.410
        57.0004         52.0004
   -750656.22347   -572192.15246  23638845.2534   23638847.7674   23638845.891
        45.0004         41.0004
 15  1  8  0 20 30.0000000  0  7G12G05G15G18G21G24G13
  -9004331.04047  -7010095.62247  23185852.1524   23185854.4924   23185852.738
        47.0004         43.0004
 -10500623.42248  -8178354.46147  22324367.1854   22324368.8634   22324366.733
        50.0004         46.0004
 -18700768.42348 -14532309.60848  21750224.9394   21750227.5454   21750224.971
        53.0004         49.0004
  -6818455.83247  -5275908.75646  23049149.4224   23049152.3454   23049150.048
        45.0004         41.0004
 -12140544.92448  -9425479.18647  22176841.3334   22176842.7894   22176840.969
        49.0004         44.0004
 -23351556.24149 -18155848.17348  20424229.4924   20424234.1944   20424229.022
        57.0004         52.0004
   -703130.98547   -535159.52946  23647889.6004   23647891.4444   23647889.837
        45.0004         41.0004
 15  1  8  0 21  0.0000000  0  7G12G05G15G18G21G24G13
  -9088437.38347  -7075632.98747  23169848.4754   23169849.0934   23169847.062
        47.0004         43.0004
 -10441164.73048  -8132023.01647  22335681.5674   22335684.4294   22335681.193
        50.0004         46.0004
 -18699020.91848 -14530947.90048  21750557.6964   21750559.4824   21750557.007
        53.0004         49.0004
  -6909280.76347  -5346681.42646  23031864.8484   23031868.1554   23031866.863
        45.0004         41.0004
 -12149077.48448  -9432127.92747  22175217.3534   22175218.7354   22175217.271
        49.0004         45.0004
 -23360680.34449 -18162957.84948  20422492.9974   20422497.8274   20422492.503
        57.0004         52.0004
   -655695.55047   -498196.84446  23656915.5244   23656918.0234   23656914.359
        45.0004         41.0004
 15  1  8  0 21 30.0000000  0  7G12G05G15G18G21G24G13
  -9172520.18147  -7141152.01347  23153847.6504   23153850.2134   23153846.787
        47.0004         43.0004
 -10381339.45848  -8085405.93547  22347066.0984   22347068.4444   22347065.572
        50.0004         46.0004
 -18697270.66448 -14529584.06148  21750890.7644   21750892.8084   21750890.020
        53.0004         49.0004
  -7000041.46647  -5417404.04046  23014594.9824   23014596.7764   23014595.698
        45.0004         41.0004
 -12157070.99748  -9438356.63047  22173695.8934   22173698.0244   22173696.259
        49.0004         45.0004
 -23369323.33549 -18169692.63448  20420848.4554   20420853.2784   20420847.731
        57.0004         52.0004
   -608356.24547   -461309.07746  23665924.6764   23665925.9044   23665923.031
        45.0004         41.0004
 15  1  8  0 22  0.0000000  0  7G12G05G15G18G21G24G13
  -9256573.31948  -7206647.92847  23137852.5044   23137853.3954   23137851.535
        48.0004         43.0004
 -10321145.71848  -8038501.72347  22358521.2394   22358522.4884   22358520.889
        50.0004         46.0004
 -18695514.69248 -14528215.76948  21751225.2084   21751226.5814   21751224.501
        53.0004         48.0004
  -7090732.81947  -5488072.62946  22997337.1884   22997337.1454   22997337.172
        45.0004         41.0004
 -12164522.86848  -9444163.27147  22172277.7314   22172279.8084   22172278.394
        50.0004         45.0004
 -23377482.91149 -18176050.72748  20419295.8074   20419300.5334   20419295.184
        57.0004         52.0004
   -561110.15147   -424493.95446  23674914.6294   23674915.9554   23674913.952
        45.0004         40.0004
 15  1  8  0 22 30.0000000  0  8G12G05G15G18G21G24G25G13
  -9340596.21648  -7272120.28347  23121864.1744   23121865.9014   23121862.926
        48.0004         43.0004
 -10260585.81348  -7991312.19647  22370044.9374   22370047.4114   22370043.866
        50.0004         46.0004
 -18693755.52548 -14526844.97548  21751559.6664   21751561.3924   21751559.085
        53.0004         49.0004
  -7181355.49347  -5558687.68546  22980092.1914   22980092.3464   22980092.314
        45.0004         40.0004
 -12171436.10348  -9449550.20347  22170962.6344   22170964.4924   22170962.872
        50.0004         45.0004
 -23385162.02749 -18182034.44248  20417834.5554   20417838.9774   20417834.144
        57.0004         52.0004
  -1010425.69548   -745351.51345  25294764.3534   25294772.1594   25294766.491
        48.0004         35.0004
   -513959.24147   -387753.00146  23683887.2784   23683887.8164   23683887.937
        45.0004         40.0004
 15  1  8  0 23  0.0000000  0  8G12G05G15G18G21G24G25G13
  -9424581.38248  -7337563.23047  23105881.6024   23105884.3274   23105881.218
        48.0004         43.0004
 -10199655.17048  -7943833.77947  22381639.7534   22381642.0474   22381640.045
        51.0004         46.0004
 -18691987.88948 -14525467.59648  21751895.2574   21751897.4144   21751895.378
        53.0004         48.0004
  -7271902.00947  -5629243.40146  22962860.8534   22962862.1794   22962861.894
        45.0004         40.0004
 -12177806.38848  -9454514.06347  22169749.9074   22169752.4324   22169750.034
        49.0004         45.0004
 -23392356.97449 -18187640.88048  20416465.4954   20416469.9164   20416464.959
        57.0004         52.0004
  -1100787.69947   -815763.53445  25277570.2894   25277574.9384   25277571.999
        43.0004         35.0004
   -466898.67247   -351082.42946  23692843.1604   23692844.5584   23692843.094
        45.0004         41.0004
 15  1  8  0 23 30.0000000  0  8G12G05G15G18G21G24G25G13
  -9508532.37848  -7402979.55147  23089905.2844   23089908.1974   23089905.856
        48.0004         43.0004
 -10138361.36348  -7896072.37847  22393304.0944   22393305.8244   22393303.336
        51.0004         46.0004
 -18690218.56948 -14524088.89948  21752233.1134   21752235.0684   21752232.239
        53.0004         48.0004
  -7362377.30947  -5699743.62646  22945645.2974   22945645.5804   22945645.268
        45.0004         40.0004
 -12183640.38548  -9459060.04247  22168639.3334   22168642.2154   22168640.108
        49.0004         44.0004
 -23399075.12349 -18192875.78748  20415187.0064   20415191.5784   20415186.599
        57.0004         52.0004
  -1191357.51946   -886337.49445  25260336.6864   25260339.2284   25260337.441
        40.0004         34.0004
   -419934.70747   -314487.13346  23701780.1104   23701781.7624   23701779.150
        45.0004         40.0004
 15  1  8  0 24  0.0000000  0  8G12G05G15G18G21G24G25G13
  -9592438.62648  -7468361.01447  23073939.6814   23073941.5614   23073939.054
        48.0004         43.0004
 -10076697.47648  -7848022.60247  22405037.7724   22405040.3744   22405037.488
        51.0004         46.0004
 -18688440.35748 -14522703.28048  21752570.3784   21752572.7894   21752569.758
        53.0004         48.0004
  -7452771.45247  -5770180.61846  22928445.8944   22928445.7244   22928444.664
        45.0004         41.0004
 -12188932.11348  -9463183.47447  22167632.8784   22167635.2574   22167633.173
        49.0004         45.0004
 -23405309.22649 -18197733.51648  20414000.9804   20414005.5014   20414000.317
        57.0004         52.0004
  -1282125.71846   -957066.04345  25243065.3954   25243067.9614   25243065.358
        39.0004         33.0004
   -373059.92047   -277961.33346  23710699.9444   23710702.1684   23710698.424
        45.0004         40.0004
 15  1  8  0 24 30.0000000  0  7G12G05G15G18G21G24G13
  -9676305.66348  -7533711.92147  23057980.0904   23057983.3244   23057980.215
        48.0004         44.0004
 -10014671.66348  -7799690.81947  22416841.1934   22416843.7494   22416841.197
        51.0004         46.0004
 -18686661.48048 -14521317.14148  21752909.2764   21752911.0544   21752909.000
        53.0004         48.0004
  -7543090.51047  -5840559.11046  22911258.0114   22911257.9864   22911257.597
        46.0004         41.0004
 -12193690.10348  -9466891.00147  22166728.3284   22166730.1194   22166727.843
        50.0004         45.0004
 -23411068.46349 -18202221.21748  20412904.7554   20412909.4444   20412904.193
        57.0004         52.0004
   -326281.97047   -241510.99846  23719601.9204   23719603.3664   23719601.574
        45.0004         40.0004
 15  1  8  0 25  0.0000000  0  7G12G05G15G18G21G24G13
  -9760121.82248  -7599023.16047  23042030.5234   23042032.4494   23042030.618
        48.0004         44.0004
  -9952275.65248  -7751070.55247  22428713.9234   22428717.1894   22428712.765
        50.0004         46.0004
 -18684872.62748 -14519923.23448  21753249.4704   21753251.5894   21753248.740
        53.0004         48.0004
  -7633323.47047  -5910870.49346  22894085.5974   22894087.6774   22894086.602
        46.0004         41.0004
 -12197905.86748  -9470176.00547  22165925.6924   22165927.7064   22165925.920
        50.0004         45.0004
 -23416344.80749 -18206332.64348  20411900.8744   20411905.2674   20411899.857
        57.0004         52.0004
   -279591.63247   -205128.91546  23728485.6974   23728487.3894   23728486.352
        45.0004         41.0004
 15  1  8  0 25 30.0000000  0  7G12G05G15G18G21G24G13
  -9843889.47648  -7664296.62647  23026090.6334   23026091.6894   23026090.902
        48.0004         44.0004
  -9889515.87248  -7702166.85047  22440656.9374   22440659.1044   22440656.765
        50.0004         46.0004
 -18683079.73148 -14518526.16748  21753591.1564   21753592.7574   21753590.615
        53.0004         49.0004
  -7723474.03947  -5981117.67946  22876930.6534   22876931.3304   22876931.122
        46.0004         41.0004
 -12201586.18048  -9473043.77147  22165225.1674   22165226.8674   22165225.582
        50.0004         45.0004
 -23421145.32449 -18210073.29548  20410986.9634   20410991.5154   20410986.629
        56.0004         52.0004
   -232994.58247   -168819.54046  23737353.3524   23737355.1234   23737353.135
        45.0004         41.0004
 15  1  8  0 26  0.0000000  0  7G12G05G15G18G21G24G13
  -9927607.05648  -7729531.06947  23010159.8204   23010161.2514   23010159.922
        48.0004         44.0004
  -9826394.39948  -7652981.29347  22452668.8884   22452671.3644   22452668.071
        50.0004         46.0004
 -18681284.15648 -14517127.01048  21753932.2734   21753934.7104   21753932.075
        53.0004         49.0004
  -7813541.40547  -6051300.02646  22859791.0344   22859792.6144   22859792.015
        46.0004         41.0004
 -12204732.79248  -9475495.67647  22164626.6794   22164628.0424   22164626.830
        50.0004         45.0004
 -23425471.44949 -18213444.28748  20410164.1304   20410168.4734   20410163.360
        56.0004         52.0004
   -186491.72647   -132583.56246  23746202.3364   23746204.3884   23746201.570
        45.0004         40.0004
 15  1  8  0 26 30.0000000  0  7G12G05G15G18G21G24G13
 -10011264.72148  -7794718.82547  22994238.8894   22994241.5564   22994238.412
        48.0004         44.0004
  -9762904.61748  -7603508.74747  22464750.9474   22464753.4724   22464750.382
        50.0004         46.0004
 -18679479.09948 -14515720.46548  21754276.0914   21754278.2924   21754275.574
        53.0004         49.0004
  -7903516.42247  -6121410.42747  22842669.4894   22842670.1144   22842669.543
        46.0004         42.0004
 -12207339.72348  -9477527.05147  22164130.4084   22164132.0084   22164130.537
        50.0004         45.0004
 -23429318.04849 -18216441.62348  20409431.7994   20409436.3984   20409431.064
        57.0004         52.0004
   -140076.22047    -96415.64346  23755035.6764   23755037.4234   23755034.775
        45.0004         40.0004
 15  1  8  0 27  0.0000000  0  7G12G05G15G18G21G24G13
 -10094867.67348  -7859863.96247  22978331.0014   22978331.4264   22978330.002
        48.0004         44.0004
  -9699055.77148  -7553756.41547  22476901.1904   22476902.8904   22476900.503
        51.0004         46.0004
 -18677672.74748 -14514312.91848  21754619.8934   21754621.4674   21754619.374
        53.0004         49.0004
  -7993405.40147  -6191453.77647  22825564.2504   22825564.7584   22825564.181
        46.0004         42.0004
 -12209415.90348  -9479144.87247  22163735.5634   22163736.2564   22163735.792
        50.0004         45.0004
 -23432693.96949 -18219072.20048  20408789.4224   20408793.9774   20408788.958
        57.0004         52.0004
    -93755.94347    -60321.93146  23763848.8384   23763851.3994   23763848.537
        45.0004         40.0004
 15  1  8  0 27 30.0000000  0  7G12G05G15G18G21G24G13
 -10178406.90248  -7924959.43047  22962433.5064   22962434.1894   22962433.190
        48.0004         43.0004
  -9634841.69548  -7503719.48847  22489120.9904   22489122.9284   22489120.771
        51.0004         46.0004
 -18675858.76748 -14512899.41948  21754964.9384   21754967.0294   21754964.562
        53.0004         48.0004
  -8083199.57147  -6261423.26146  22808476.7354   22808479.2284   22808477.262
        46.0004         41.0004
 -12210955.94448  -9480344.89947  22163442.2894   22163444.0284   22163442.396
        50.0004         45.0004
 -23435594.27949 -18221332.17348  20408237.7364   20408242.2774   20408237.225
        57.0004         52.0004
    -47524.06347    -24297.11446  23772647.2474   23772648.4364   23772647.265
        45.0004         40.0004
 15  1  8  0 28  0.0000000  0  8G12G05G15G18G21G24G25G13
 -10261886.28048  -7990008.26747  22946547.1834   22946548.2104   22946547.865
        48.0004         44.0004
  -9570270.06648  -7453403.94547  22501408.2654   22501409.9994   22501407.860
        51.0004         46.0004
 -18674044.03748 -14511485.34448  21755310.2984   21755312.7574   21755309.444
        53.0004         49.0004
  -8172903.79647  -6331322.66646  22791405.8214   22791409.2024   22791406.972
        46.0004         41.0004
 -12211967.47648  -9481133.09647  22163249.3174   22163251.5454   22163249.499
        50.0004         45.0004
 -23438026.48149 -18223227.38248  20407774.7904   20407779.4244   20407774.282
        57.0004         52.0004
                                                                  25103539.144

     -1387.37847     11653.52646  23781426.4674   23781428.2594   23781426.776
        45.0004         40.0004
 15  1  8  0 28 30.0000000  0  7G12G05G15G18G21G24G13
 -10345292.60648  -8055000.18747  22930675.9284   22930676.9334   22930675.832
        48.0004         44.0004
  -9505331.08148  -7402802.14447  22513765.3584   22513768.5734   22513765.118
        51.0004         46.0004
 -18672218.02748 -14510062.47948  21755658.4144   21755659.9174   21755658.267
        53.0004         49.0004
  -8262505.22647  -6401141.94846  22774355.8294   22774358.7924   22774355.982
        46.0004         41.0004
 -12212441.09448  -9481502.13747  22163159.0104   22163161.8104   22163159.183
        49.0004         45.0004
 -23439980.44349 -18224749.93648  20407403.0574   20407407.4934   20407402.236
        57.0004         52.0004
     44664.78247     47538.32246  23790190.2904   23790191.6254   23790190.515
        45.0004         40.0004
 15  1  8  0 29  0.0000000  0  7G12G05G15G18G21G24G13
 -10428632.40348  -8119940.25547  22914816.9264   22914818.0714   22914816.345
        48.0004         44.0004
  -9440034.90748  -7351922.02447  22526190.4224   22526192.9824   22526189.872
        50.0004         46.0004
 -18670390.17948 -14508638.17748  21756005.6304   21756007.5944   21756004.961
        53.0004         49.0004
  -8352011.21847  -6470886.85147  22757323.7044   22757325.7104   22757323.583
        46.0004         42.0004
 -12212386.83648  -9481459.86647  22163169.2644   22163171.2084   22163169.703
        49.0004         45.0004
 -23441467.72149 -18225908.84148  20407119.8874   20407124.4864   20407119.366
        57.0004         52.0004
     90623.45747     83350.25846  23798936.3254   23798938.3004   23798935.500
        45.0004         40.0004
 15  1  8  0 29 30.0000000  0  7G12G05G15G18G21G24G13
 -10511898.91548  -8184823.22247  22898971.6844   22898974.2664   22898971.177
        48.0004         44.0004
  -9374379.62548  -7300762.08147  22538683.8094   22538687.4294   22538683.321
        50.0004         46.0004
 -18668557.35348 -14507210.00648  21756354.6964   21756356.5774   21756354.063
        53.0004         49.0004
  -8441416.67747  -6540553.43047  22740309.5054   22740312.2854   22740310.339
        46.0004         42.0004
 -12211802.94748  -9481004.89647  22163280.7244   22163283.1744   22163281.295
        50.0004         45.0004
 -23442485.73349 -18226702.08548  20406926.1934   20406930.4604   20406925.819
        57.0004         52.0004
    136491.50247    119091.58346  23807665.3764   23807666.1854   23807663.580
        45.0004         40.0004
 15  1  8  0 30  0.0000000  0  7G12G05G15G18G21G24G13
 -10595086.79848  -8249644.91547  22883142.1604   22883142.8224   22883141.927
        48.0004         44.0004
  -9308362.27748  -7249319.99647  22551247.3044   22551249.7524   22551246.704
        50.0004         45.0004
 -18666716.25348 -14505775.37548  21756705.1214   21756706.8624   21756704.666
        53.0004         49.0004
  -8530716.41447  -6610137.62647  22723316.7814   22723319.3394   22723317.094
        46.0004         42.0004
 -12210686.99848  -9480135.33047  22163493.0204   22163494.7824   22163493.684
        50.0004         45.0004
 -23443032.83649 -18227128.38748  20406822.0554   20406826.3374   20406821.428
        57.0004         52.0004
    182272.78247    154765.28446  23816377.2704   23816377.9684   23816376.986
        45.0004         40.0004
 15  1  8  0 30 30.0000000  0  7G12G05G15G18G21G24G13
 -10678196.15548  -8314405.41447  22867326.1344   22867328.9564   22867325.883
        49.0004         44.0004
  -9241987.27948  -7197599.22047  22563877.9744   22563880.6024   22563876.649
        50.0004         45.0004
 -18664870.30248 -14504336.96648  21757056.3864   21757058.5524   21757056.271
        53.0004         49.0004
  -8619911.60647  -6679640.38447  22706342.5754   22706346.9414   22706343.974
        46.0004         42.0004
 -12209043.52548  -9478854.67947  22163806.2334   22163808.3244   22163806.619
        50.0004         45.0004
 -23443113.28349 -18227191.05848  20406806.8694   20406811.3544   20406806.284
        57.0004         52.0004
    227963.78347    190368.66246  23825070.8834   23825073.8364   23825069.288
        44.0004         40.0004
 15  1  8  0 31  0.0000000  0  7G12G05G15G18G21G24G13
 -10761225.88948  -8379103.87447  22851525.2204   22851528.1964   22851525.129
        49.0004         44.0004
  -9175256.74148  -7145601.40947  22576576.2974   22576578.5314   22576576.751
        50.0004         46.0004
 -18663021.24348 -14502896.13548  21757408.1304   21757409.8634   21757407.714
        53.0004         49.0004
  -8709001.32847  -6749060.93646  22689390.3124   22689391.8554   22689390.203
        46.0004         41.0004
 -12206874.81248  -9477164.78647  22164218.9364   22164221.1854   22164219.302
        50.0004         45.0004
 -23442729.67749 -18226892.13448  20406879.8284   20406884.3414   20406879.159
        57.0004         52.0004
    273563.63447    225901.00646  23833747.8324   23833750.1334   23833746.545
        44.0004         40.0004
 15  1  8  0 31 30.0000000  0  7G12G05G15G18G21G24G13
 -10844169.17448  -8443734.98047  22835741.9254   22835744.4914   22835741.925
        49.0004         44.0004
  -9108168.60448  -7093324.95847  22589343.2194   22589345.1324   22589342.298
        50.0004         46.0004
 -18661165.70648 -14501450.25948  21757761.2574   21757762.8114   21757761.091
        53.0004         49.0004
  -8797980.53447  -6818395.37046  22672457.9694   22672460.3904   22672457.934
        46.0004         41.0004
 -12204179.34448  -9475064.43847  22164731.1624   22164733.2294   22164731.578
        50.0004         45.0004
 -23441880.32049 -18226230.28548  20407041.2434   20407045.8004   20407040.513
        57.0004         52.0004
    319075.51147    261364.80346  23842409.5814   23842411.0504   23842408.038
        44.0004         40.0004
 15  1  8  0 32  0.0000000  0  7G12G05G15G18G21G24G13
 -10927022.82248  -8508296.21547  22819975.2194   22819977.6524   22819975.288
        48.0004         44.0004
  -9040722.31248  -7040769.42647  22602177.5114   22602180.1644   22602177.811
        50.0004         46.0004
 -18659302.65148 -14499998.52148  21758115.8664   21758117.2494   21758115.422
        53.0004         49.0004
  -8886845.83347  -6887641.04347  22655546.5924   22655549.3194   22655547.724
        46.0004         42.0004
 -12200956.47848  -9472553.11247  22165344.1484   22165346.7884   22165344.893
        50.0004         45.0004
 -23440565.10049 -18225205.42848  20407291.7394   20407295.8774   20407291.265
        57.0004         52.0004
    364500.96447    296761.25646  23851053.0874   23851054.9814   23851052.635
        44.0004         40.0004
 15  1  8  0 32 30.0000000  0  7G12G05G15G18G21G24G13
 -11009784.51348  -8572785.81747  22804226.2274   22804229.5554   22804225.603
        48.0004         44.0004
  -8972919.47148  -6987936.05947  22615079.9754   22615082.7944   22615079.811
        50.0004         46.0004
 -18657432.39348 -14498541.17148  21758471.6804   21758473.6954   21758471.103
        53.0004         49.0004
  -8975596.05547  -6956797.06447  22638658.2014   22638660.5354   22638658.392
        47.0004         42.0004
 -12197208.10448  -9469632.30547  22166057.9684   22166059.5054   22166058.480
        49.0004         45.0004
 -23438786.07949 -18223819.16848  20407630.3774   20407634.3424   20407629.629
        57.0004         52.0004
    409839.71547    332090.13546  23859679.7374   23859682.3034   23859679.908
        44.0004         40.0004
